ride_id,rideable_type,started_at,ended_at,start_station_name,start_station_id,end_station_name,end_station_id,start_lat,start_lng,end_lat,end_lng,member_casual
81B423963BA2C10C,classic_bike,2022-01-24 10:15:53,2022-01-24 10:39:53,Lincoln Park Conservatory,LP-,Daley Center Plaza,TA1306000010,41.92393131136619,-87.63582453131676,41.884241,-87.629634,member
48FCDFB684AB480E,classic_bike,2022-01-21 16:21:45,2022-01-21 16:26:24,Southport Ave & Waveland Ave,13235,Southport Ave & Belmont Ave,13229,41.94815,-87.66394,41.93947775040509,-87.6637476682663,member
5904AEC0CF58C0FC,classic_bike,2022-01-04 14:42:51,2022-01-04 14:44:46,State St & Randolph St,TA1305000029,State St & Randolph St,TA1305000029,41.88462107257936,-87.62783423066139,41.88462107257936,-87.62783423066139,casual
B95CB1F1B789FE55,electric_bike,2022-01-31 19:40:24,2022-01-31 19:56:48,Clark St & Bryn Mawr Ave,KA1504000151,Eastlake Ter & Rogers Ave,523,41.983559966,-87.669120908,42.0208872805206,-87.66505792737007,member
DC05E825FBB08C56,classic_bike,2022-01-13 17:00:31,2022-01-13 17:08:21,Fairbanks St & Superior St,18003,Sedgwick St & Huron St,TA1307000062,41.895748,-87.620104,41.894666,-87.638437,member
9F13B9AE226DA966,classic_bike,2022-01-05 09:39:25,2022-01-05 09:54:38,Paulina Ave & North Ave,TA1305000037,Clinton St & Lake St,13021,41.90985465216731,-87.66993016004562,41.885637,-87.641823,member
95DEE16AC22559A4,classic_bike,2022-01-21 13:29:49,2022-01-21 13:35:06,Paulina Ave & North Ave,TA1305000037,Damen Ave & Cortland St,13133,41.90985465216731,-87.66993016004562,41.915983,-87.677335,member
78677CA2CA99AD35,electric_bike,2022-01-12 13:17:47,2022-01-12 13:21:41,Damen Ave & Madison St,13134,Ada St & Washington Blvd,13353,41.88142316666666,-87.67497666666667,41.88283,-87.661206,member
0D7E5EA70A2A07DE,classic_bike,2022-01-19 22:03:27,2022-01-19 22:06:03,Ellis Ave & 53rd St,KA1503000052,Kimbark Ave & 53rd St,TA1309000037,41.79933626261,-87.6009581145,41.799568,-87.594747,member
0A33F94BFE448828,classic_bike,2022-01-11 15:05:50,2022-01-11 15:14:44,Wolcott Ave & Polk St,TA1309000064,Ada St & Washington Blvd,13353,41.871262,-87.673688,41.88283,-87.661206,casual
3D340D186F24FFA2,classic_bike,2022-01-05 10:57:45,2022-01-05 11:03:45,Glenwood Ave & Touhy Ave,525,Paulina St & Howard St,515,42.012701,-87.666058,42.019159,-87.673573,member
7F678E0984C24E5A,electric_bike,2022-01-10 15:30:18,2022-01-10 15:56:26,Sheffield Ave & Fullerton Ave,TA1306000016,Kedzie Ave & Milwaukee Ave,13085,41.925487,-87.6536545,41.929567,-87.707857,member
3E410B16E5255852,classic_bike,2022-01-04 13:04:55,2022-01-04 13:08:57,Orleans St & Hubbard St,636,Sedgwick St & Huron St,TA1307000062,41.890028,-87.636618,41.894666,-87.638437,casual
41A3ABA528FB9A1E,electric_bike,2022-01-12 18:48:01,2022-01-12 18:53:06,Clark St & Wellington Ave,TA1307000136,Racine Ave & Belmont Ave,TA1308000019,41.93655833333333,-87.647625,41.939743,-87.658865,casual
DBC3696EEAA3773F,classic_bike,2022-01-31 06:26:56,2022-01-31 06:33:31,Clinton St & Jackson Blvd,638,Orleans St & Merchandise Mart Plaza,TA1305000022,41.87831661183069,-87.64098107814789,41.888243,-87.63639,member
C0307E7C114DD71A,electric_bike,2022-01-15 17:09:53,2022-01-15 17:17:29,Damen Ave & Cortland St,13133,Bissell St & Armitage Ave,13059,41.915992333333335,-87.677347,41.91801814237187,-87.65218198299408,member
E9B2BAA7FEEDD011,classic_bike,2022-01-07 11:40:36,2022-01-07 11:45:58,Sheffield Ave & Kingsbury St,13154,Clifton Ave & Armitage Ave,TA1307000163,41.910522,-87.653106,41.918216,-87.656936,member
931E11412E88919C,classic_bike,2022-01-16 09:02:24,2022-01-16 09:09:31,Milwaukee Ave & Grand Ave,13033,Aberdeen St & Monroe St,13156,41.891578,-87.648384,41.880419,-87.655519,member
2D50AF817E9B4224,classic_bike,2022-01-22 13:30:45,2022-01-22 13:48:41,Leavitt St & Division St,658,Ashland Ave & Division St,13061,41.902997,-87.683825,41.90345,-87.667747,member
C995E1E917ACAD7F,classic_bike,2022-01-30 12:49:22,2022-01-30 12:54:27,Cornell Ave & Hyde Park Blvd,KA1503000007,Lake Park Ave & 56th St,TA1309000063,41.802406,-87.586924,41.793242,-87.587782,member
453E77EBB287EFCB,classic_bike,2022-01-08 17:29:42,2022-01-08 17:52:08,Wood St & Taylor St (Temp),13285,Damen Ave & Cullerton St,13089,41.869265218438194,-87.67373085021973,41.854966518753926,-87.67569959163664,member
9276F34E6C7F27A5,classic_bike,2022-01-30 12:49:30,2022-01-30 12:54:32,Cornell Ave & Hyde Park Blvd,KA1503000007,Lake Park Ave & 56th St,TA1309000063,41.802406,-87.586924,41.793242,-87.587782,member
A17AEEA491455093,classic_bike,2022-01-27 18:22:17,2022-01-27 18:32:49,Damen Ave & Leland Ave,TA1307000158,Ashland Ave & Grace St,13319,41.967094,-87.679028,41.950687,-87.6687,member
060598F8DA7E017B,classic_bike,2022-01-26 15:53:41,2022-01-26 15:55:12,Evanston Civic Center,661,Evanston Civic Center,661,42.057044,-87.686554,42.057044,-87.686554,member
2CE76F0C7FCD3866,classic_bike,2022-01-14 14:10:26,2022-01-14 14:17:29,Sheridan Rd & Lawrence Ave,TA1309000041,Sheridan Rd & Lawrence Ave,TA1309000041,41.969517,-87.654691,41.969517,-87.654691,member
BD0F91DFF741C66D,classic_bike,2022-01-25 04:53:40,2022-01-25 04:58:01,Sheffield Ave & Fullerton Ave,TA1306000016,Greenview Ave & Fullerton Ave,TA1307000001,41.9256018819,-87.6537080423,41.92533,-87.6658,member
DD08B3AC31371011,classic_bike,2022-01-25 16:24:58,2022-01-25 16:35:41,Franklin St & Jackson Blvd,TA1305000025,Columbus Dr & Randolph St,13263,41.8777079559,-87.6353211408,41.884728,-87.619521,member
905C0C8A277C5382,classic_bike,2022-01-13 08:35:36,2022-01-13 08:44:57,Harper Ave & 59th St,KA1503000070,Woodlawn Ave & 55th St,TA1307000164,41.78794281287,-87.5883151702,41.795264,-87.596471,member
0F52417C99062DE4,electric_bike,2022-01-21 15:36:02,2022-01-21 15:42:51,Franklin St & Adams St (Temp),TA1309000008,Sedgwick St & Huron St,TA1307000062,41.87876883333333,-87.63592683333333,41.894666,-87.638437,member
B99E0E2C8E134993,classic_bike,2022-01-16 19:34:05,2022-01-16 19:52:58,Green St & Randolph St,13053,Columbus Dr & Randolph St,13263,41.88318130597391,-87.64872461557388,41.884728,-87.619521,casual
D410858BB972B424,classic_bike,2022-01-10 05:32:15,2022-01-10 05:43:46,Indiana Ave & Roosevelt Rd,SL-005,Clinton St & Jackson Blvd,638,41.867888,-87.623041,41.87831661183069,-87.64098107814789,member
B8737808E19E47C5,classic_bike,2022-01-12 17:22:07,2022-01-12 17:30:40,Leavitt St & Chicago Ave,18058,Milwaukee Ave & Wabansia Ave,13243,41.895501,-87.682017,41.912616,-87.681391,member
CAD799DF46C213A3,classic_bike,2022-01-01 01:39:52,2022-01-01 01:48:06,Kedzie Ave & Milwaukee Ave,13085,Central Park Ave & Elbridge Ave,15644,41.929567,-87.707857,41.93533728263,-87.7168892935,casual
4109CA44BEA06806,classic_bike,2022-01-18 20:06:34,2022-01-18 20:19:29,Ashland Ave & Grand Ave,13434,Clark St & Lake St,KA1503000012,41.891072,-87.666611,41.88602082773,-87.6308760584,casual
2A23ED3FECB72E5B,electric_bike,2022-01-15 12:52:14,2022-01-15 12:59:42,Halsted St & North Branch St,KA1504000117,Clark St & Chicago Ave,13303,41.899331333333336,-87.6485665,41.89675,-87.63089,member
80F0735AD7F23AD9,electric_bike,2022-01-18 17:52:46,2022-01-18 18:18:40,Clark St & Bryn Mawr Ave,KA1504000151,Elston Ave & Cortland St,TA1305000039,41.983563333333336,-87.66915616666667,41.91643342912655,-87.66674637794495,member
557704B4E41F2373,classic_bike,2022-01-05 17:07:27,2022-01-05 17:27:22,Wabash Ave & Grand Ave,TA1307000117,Aberdeen St & Monroe St,13156,41.891466,-87.626761,41.880419,-87.655519,member
0521D450540D1B56,electric_bike,2022-01-14 04:57:26,2022-01-14 05:00:27,Lincoln Ave & Belmont Ave,TA1309000042,Ashland Ave & Grace St,13319,41.939363599,-87.668340564,41.950687,-87.6687,member
24F96EB037B3B3F6,electric_bike,2022-01-21 17:19:50,2022-01-21 17:27:29,Clinton St & Lake St,13021,Clark St & Ida B Wells Dr,TA1305000009,41.88540883333334,-87.64182433333333,41.8759326655,-87.6305845355,member
E0296F5917FA2367,electric_bike,2022-01-12 17:15:02,2022-01-12 17:19:11,Sheffield Ave & Waveland Ave,TA1307000126,Pine Grove Ave & Irving Park Rd,TA1308000022,41.9491535,-87.654515,41.954383,-87.648043,member
CBB80ED419105406,classic_bike,2022-01-04 00:18:04,2022-01-04 00:33:00,Clark St & Bryn Mawr Ave,KA1504000151,Paulina St & Montrose Ave,TA1309000021,41.983593,-87.669154,41.961507,-87.671387,casual
54BBCAF9DB9170A5,classic_bike,2022-01-21 17:49:12,2022-01-21 17:58:46,Clinton St & Lake St,13021,Financial Pl & Ida B Wells Dr,SL-010,41.885637,-87.641823,41.8750236280333,-87.6330940425396,member
6F211C6B408CCE1C,classic_bike,2022-01-16 04:31:42,2022-01-16 04:35:20,Winthrop Ave & Lawrence Ave,TA1308000021,Broadway & Wilson - Truman College Vaccination Site,13074,41.968812,-87.657659,41.965221,-87.658139,member
1A23A8E213A2F495,electric_bike,2022-01-28 08:47:57,2022-01-28 09:05:12,Wood St & Milwaukee Ave,13221,Michigan Ave & Washington St,13001,41.907617,-87.67251766666666,41.8839840647265,-87.6246839761734,member
AAFD9E5E93E491F5,classic_bike,2022-01-12 13:03:01,2022-01-12 13:06:54,Rush St & Superior St,15530,Cityfront Plaza Dr & Pioneer Ct,13427,41.89576474564,-87.6259080327,41.890573,-87.622072,member
509768FB8034B47E,electric_bike,2022-01-11 09:04:56,2022-01-11 09:17:40,Carpenter St & Huron St,13196,St. Clair St & Erie St,13016,41.894510031,-87.653453112,41.89434513742426,-87.62279838323593,member
2470E6D8D5072F42,classic_bike,2022-01-08 10:27:00,2022-01-08 10:56:31,Ashland Ave & Grace St,13319,Ashland Ave & Grace St,13319,41.950687,-87.6687,41.950687,-87.6687,member
116C52453384597E,electric_bike,2022-01-11 12:02:26,2022-01-11 12:10:53,Ashland Ave & Division St,13061,Honore St & Division St,TA1305000034,41.903337,-87.66805383333333,41.903119,-87.673935,casual
36EE576E7B20FF47,classic_bike,2022-01-13 12:10:56,2022-01-13 12:26:51,Michigan Ave & 14th St,TA1307000124,Clinton St & Washington Blvd,WL-012,41.864059,-87.623727,41.88338,-87.64117,member
08E07B0FD5F70961,electric_bike,2022-01-30 12:46:28,2022-01-30 13:30:24,Clinton St & Tilden St,13037,Green St & Madison St,TA1307000120,41.8758725,-87.64074233333334,41.881892,-87.648789,member
006A7326570740AE,classic_bike,2022-01-15 17:46:11,2022-01-15 20:14:59,Clark St & Lake St,KA1503000012,State St & Pearson St,TA1307000061,41.88602082773,-87.6308760584,41.897448,-87.628722,casual
9A9C816959C48E9B,classic_bike,2022-01-12 16:37:42,2022-01-12 16:58:26,Sheffield Ave & Wrightwood Ave,TA1309000023,Streeter Dr & Grand Ave,13022,41.928712,-87.653833,41.892278,-87.612043,member
9DD84CD40CA81B7C,classic_bike,2022-01-13 02:05:30,2022-01-13 02:18:38,Glenwood Ave & Touhy Ave,525,Clark St & Elmdale Ave,KA1504000148,42.012701,-87.666058,41.99086044812557,-87.66972362995148,member
531D0E3A3316F115,classic_bike,2022-01-08 08:58:21,2022-01-08 09:11:47,Leavitt St & Division St,658,Carpenter St & Huron St,13196,41.902997,-87.683825,41.894556,-87.653449,member
82188E87C2B50E6B,classic_bike,2022-01-21 17:25:46,2022-01-21 17:41:58,Ogden Ave & Congress Pkwy,13081,Claremont Ave & Hirsch St,13245,41.87501,-87.67328,41.907781,-87.685854,member
92CC0B0A2CAC404C,classic_bike,2022-01-18 16:41:21,2022-01-18 16:43:40,Clarendon Ave & Leland Ave,TA1307000119,Marine Dr & Ainslie St,KA1504000171,41.967968,-87.650001,41.9716,-87.650154,member
D22CAF85075B86C9,electric_bike,2022-01-19 17:54:41,2022-01-19 18:04:00,Clark St & Bryn Mawr Ave,KA1504000151,Marine Dr & Ainslie St,KA1504000171,41.983593166666665,-87.6691205,41.9716,-87.650154,casual
40A1D6EFD8F89D98,classic_bike,2022-01-18 08:29:06,2022-01-18 08:42:29,Sedgwick St & North Ave,TA1307000038,Ashland Ave & Division St,13061,41.911386,-87.638677,41.90345,-87.667747,member
025541066AB680CE,classic_bike,2022-01-13 16:17:22,2022-01-13 16:21:52,Southport Ave & Waveland Ave,13235,Ashland Ave & Grace St,13319,41.94815,-87.66394,41.950687,-87.6687,member
A39C6F6CC0586C0B,classic_bike,2022-01-11 18:48:09,2022-01-11 18:51:31,Wood St & Chicago Ave,637,Honore St & Division St,TA1305000034,41.895634,-87.672069,41.903119,-87.673935,member
618DB2EDEC40955F,classic_bike,2022-01-01 02:37:09,2022-01-01 02:42:13,Wells St & Huron St,TA1306000012,Wells St & Elm St,KA1504000135,41.894722,-87.634362,41.903222,-87.634324,casual
60F097C3AF1A8B5D,classic_bike,2022-01-17 07:23:26,2022-01-17 07:26:40,Clinton St & Jackson Blvd,638,Franklin St & Jackson Blvd,TA1305000025,41.87831661183069,-87.64098107814789,41.8777079559,-87.6353211408,member
1965757F99F03F3C,electric_bike,2022-01-06 12:55:16,2022-01-06 13:23:35,LaSalle St & Jackson Blvd,TA1309000004,Southport Ave & Wellington Ave,TA1307000006,41.87800933333333,-87.63079716666667,41.935733,-87.663576,member
A96C851139B33F27,docked_bike,2022-01-01 11:03:47,2022-01-01 11:27:29,Shore Dr & 55th St,TA1308000009,Cottage Grove Ave & Oakwood Blvd,TA1308000038,41.795212,-87.580715,41.822985,-87.6071,casual
DA96A033454DF14E,electric_bike,2022-01-01 02:41:02,2022-01-01 02:48:06,Central Park Ave & Bloomingdale Ave,18017,Spaulding Ave & Division St,15654,41.91412833333333,-87.71675233333333,41.90270659438,-87.709219571,casual
973ED7FA61DE14A4,classic_bike,2022-01-04 11:45:45,2022-01-04 11:52:43,Damen Ave & Chicago Ave,13132,Ashland Ave & Division St,13061,41.895769,-87.67722,41.90345,-87.667747,casual
EDB4CD31980CD36B,classic_bike,2022-01-11 16:24:21,2022-01-11 16:29:04,Rush St & Superior St,15530,Franklin St & Chicago Ave,13017,41.89576474564,-87.6259080327,41.896746973093805,-87.63566762208939,member
D9389E9A314CA8A6,classic_bike,2022-01-01 01:59:10,2022-01-01 02:13:19,Wells St & Concord Ln,TA1308000050,Stockton Dr & Wrightwood Ave,13276,41.912133,-87.634656,41.93132,-87.638742,casual
92A9E7F9C14B5633,electric_bike,2022-01-23 12:49:35,2022-01-23 13:11:22,Damen Ave & Charleston St,13288,Conservatory Dr & Lake St,518,41.919976,-87.6779505,41.885502,-87.716866,casual
DD815C6AB38EAEF2,classic_bike,2022-01-31 15:58:50,2022-01-31 16:07:32,Clark St & North Ave,13128,Stockton Dr & Wrightwood Ave,13276,41.911974,-87.631942,41.93132,-87.638742,member
A75E2858C063BAA2,electric_bike,2022-01-31 09:10:58,2022-01-31 09:21:51,California Ave & Altgeld St,15646,Western Ave & Walton St,KA1504000103,41.926664333333335,-87.69782166666667,41.89841768945,-87.6865960164,member
510D0642DBE2A1C8,docked_bike,2022-01-15 13:47:41,2022-01-15 13:50:50,Clinton St & Lake St,13021,Clinton St & Lake St,13021,41.885637,-87.641823,41.885637,-87.641823,casual
4E24C9643F86FF98,electric_bike,2022-01-17 17:37:54,2022-01-17 17:46:45,LaSalle St & Washington St,13006,Carpenter St & Huron St,13196,41.882506132,-87.632217407,41.894556,-87.653449,member
6953D70EFD41BEEC,electric_bike,2022-01-13 14:30:25,2022-01-13 14:37:01,Franklin St & Monroe St,TA1309000007,Columbus Dr & Randolph St,13263,41.879696608,-87.635506272,41.884728,-87.619521,member
2AA798770F1F8C43,classic_bike,2022-01-07 09:25:56,2022-01-07 09:31:17,Ashland Ave & Chicago Ave,13247,Ogden Ave & Chicago Ave,TA1305000020,41.8959743225961,-87.66772538423538,41.896362458,-87.6540612729,member
72DC25B2DD467EEF,classic_bike,2022-01-28 15:27:53,2022-01-28 15:35:16,LaSalle St & Jackson Blvd,TA1309000004,Clinton St & Washington Blvd,WL-012,41.878166,-87.631929,41.88338,-87.64117,member
D126F33C0F56961C,classic_bike,2022-01-16 11:03:31,2022-01-16 11:15:06,LaSalle Dr & Huron St,KP1705001026,Clark St & Ida B Wells Dr,TA1305000009,41.894877,-87.632326,41.8759326655,-87.6305845355,member
0674ED1D1DD2034E,electric_bike,2022-01-25 10:56:32,2022-01-25 11:15:42,Blackstone Ave & Hyde Park Blvd,13398,Shore Dr & 55th St,TA1308000009,41.80259366666667,-87.59032266666667,41.795212,-87.580715,member
1B768C121054E41E,electric_bike,2022-01-08 12:36:01,2022-01-08 12:38:33,Wells St & Huron St,TA1306000012,State St & Pearson St,TA1307000061,41.894771,-87.63438733333334,41.897448,-87.628722,member
08F4E534D43CEAA5,electric_bike,2022-01-02 12:08:28,2022-01-02 12:15:49,Clark St & Lake St,KA1503000012,Streeter Dr & Grand Ave,13022,41.88534633333333,-87.63093916666666,41.892278,-87.612043,casual
18ABF0C648852A14,classic_bike,2022-01-21 09:33:07,2022-01-21 09:36:41,Milwaukee Ave & Grand Ave,13033,Clinton St & Lake St,13021,41.891578,-87.648384,41.885637,-87.641823,member
2544D3603F4C6D0E,classic_bike,2022-01-28 04:00:41,2022-01-28 04:03:50,Sheffield Ave & Fullerton Ave,TA1306000016,Racine Ave & Fullerton Ave,TA1306000026,41.9256018819,-87.6537080423,41.92556258,-87.65840426,member
C7B96DC21A4CDE15,classic_bike,2022-01-12 18:53:32,2022-01-12 19:00:57,Franklin St & Jackson Blvd,TA1305000025,Aberdeen St & Monroe St,13156,41.8777079559,-87.6353211408,41.880419,-87.655519,member
2A2C33FB6117659F,classic_bike,2022-01-25 08:40:32,2022-01-25 09:05:27,Western Ave & Winnebago Ave,13068,Clark St & Randolph St,TA1305000030,41.91552,-87.687022,41.884576228,-87.63188991,member
96E971CFFF082325,electric_bike,2022-01-06 13:04:57,2022-01-06 13:13:29,Lincoln Ave & Belle Plaine Ave,TA1309000026,Ashland Ave & Belle Plaine Ave,13249,41.95605233333333,-87.68035616666667,41.956057,-87.668835,member
A3C0E788FF796B29,classic_bike,2022-01-07 13:50:18,2022-01-07 13:54:44,Cityfront Plaza Dr & Pioneer Ct,13427,State St & Randolph St,TA1305000029,41.890573,-87.622072,41.88462107257936,-87.62783423066139,member
8122545D5DB5F5B1,electric_bike,2022-01-05 13:15:25,2022-01-05 13:25:28,Lincoln Ave & Balmoral Ave,442,Kedzie Ave & Bryn Mawr Ave,KA1504000167,41.98,-87.69,41.98222975911517,-87.70888656377792,member
BFBD1FD189F033DA,classic_bike,2022-01-13 17:05:00,2022-01-13 17:12:21,State St & Van Buren St,TA1305000035,Wells St & Polk St,SL-011,41.877181,-87.627844,41.872596,-87.633502,member
B62700E732B221B1,classic_bike,2022-01-30 19:26:45,2022-01-30 19:32:43,Clinton St & Lake St,13021,Aberdeen St & Monroe St,13156,41.885637,-87.641823,41.880419,-87.655519,member
BD1919A16C567881,electric_bike,2022-01-20 18:13:14,2022-01-20 18:23:38,Wilton Ave & Diversey Pkwy,TA1306000014,Ashland Ave & Grace St,13319,41.93248883333333,-87.65264133333334,41.950687,-87.6687,member
58BE2248DF74FE49,classic_bike,2022-01-17 13:32:02,2022-01-17 14:16:30,Ashland Ave & Grace St,13319,Ashland Ave & Grace St,13319,41.950687,-87.6687,41.950687,-87.6687,member
0A4C7A99BE3E0B06,electric_bike,2022-01-27 15:48:06,2022-01-27 16:01:40,Sheffield Ave & Fullerton Ave,TA1306000016,Clybourn Ave & Division St,TA1307000115,41.925605,-87.6537055,41.904613,-87.640552,casual
E91ACB744F82CDFF,classic_bike,2022-01-13 05:40:00,2022-01-13 05:43:41,Delano Ct & Roosevelt Rd,KA1706005007,Wells St & Polk St,SL-011,41.867491,-87.63219,41.872596,-87.633502,member
0DD7E7AB782D3DC5,classic_bike,2022-01-21 07:20:47,2022-01-21 07:25:03,Clinton St & Jackson Blvd,638,Franklin St & Jackson Blvd,TA1305000025,41.87831661183069,-87.64098107814789,41.8777079559,-87.6353211408,member
514164C6FB2AF7FC,classic_bike,2022-01-30 16:32:55,2022-01-30 16:35:42,Theater on the Lake,TA1308000001,Theater on the Lake,TA1308000001,41.926277,-87.630834,41.926277,-87.630834,casual
D0E2BE20D6D16917,classic_bike,2022-01-16 13:26:38,2022-01-16 14:12:23,Clark St & Bryn Mawr Ave,KA1504000151,Greenview Ave & Jarvis Ave,520,41.983593,-87.669154,42.015962,-87.66857,member
B09627596D2B78A6,electric_bike,2022-01-21 10:50:21,2022-01-21 10:57:53,Fairbanks St & Superior St,18003,Sedgwick St & Huron St,TA1307000062,41.895762086,-87.620456219,41.894666,-87.638437,member
6942BBE7564519EB,classic_bike,2022-01-13 11:52:48,2022-01-13 12:07:26,Carpenter St & Huron St,13196,LaSalle St & Adams St,KA1503000034,41.894556,-87.653449,41.87934437346,-87.6319852213,member
81751A3186E59A6B,classic_bike,2022-01-22 12:20:02,2022-01-22 12:32:06,Sheffield Ave & Fullerton Ave,TA1306000016,Damen Ave & Clybourn Ave,13271,41.9256018819,-87.6537080423,41.931931,-87.677856,member
E58D4856EF47B840,classic_bike,2022-01-22 11:48:20,2022-01-22 12:10:59,Clark St & Wellington Ave,TA1307000136,Honore St & Division St,TA1305000034,41.9364968219,-87.6475386582,41.903119,-87.673935,member
76449D21405825CB,classic_bike,2022-01-12 20:27:04,2022-01-12 20:31:56,Lincoln Ave & Belmont Ave,TA1309000042,Ashland Ave & Wrightwood Ave,13296,41.939365,-87.668385,41.92883,-87.668507,casual
8B4541BABD157BAA,classic_bike,2022-01-28 20:30:19,2022-01-28 20:33:57,Dearborn St & Van Buren St,624,Wells St & Polk St,SL-011,41.876268,-87.629155,41.872596,-87.633502,member
9A37BF3BC7E30EE4,electric_bike,2022-01-25 13:22:39,2022-01-25 13:28:00,Dearborn St & Adams St,TA1305000005,Wells St & Polk St,SL-011,41.879531,-87.62950516666666,41.872596,-87.633502,member
A36BACC0E614ABE6,classic_bike,2022-01-01 12:05:12,2022-01-01 12:06:20,Michigan Ave & Jackson Blvd,TA1309000002,Michigan Ave & Jackson Blvd,TA1309000002,41.87785,-87.62408,41.87785,-87.62408,casual
F7B960DE82B7D39D,classic_bike,2022-01-20 16:49:49,2022-01-20 16:59:16,Leavitt St & Chicago Ave,18058,Milwaukee Ave & Wabansia Ave,13243,41.895501,-87.682017,41.912616,-87.681391,member
92A56C1C931267D1,electric_bike,2022-01-31 17:27:15,2022-01-31 17:27:57,Ashland Ave & Grace St,13319,Ashland Ave & Grace St,13319,41.95061366666667,-87.66868266666667,41.950687,-87.6687,member
B1D4D97A5BF7541D,classic_bike,2022-01-20 17:02:55,2022-01-20 17:45:15,Dearborn St & Adams St,TA1305000005,Woodlawn Ave & 55th St,TA1307000164,41.8793563587,-87.6297910363,41.795264,-87.596471,member
7B9C17236F7A73DB,classic_bike,2022-01-09 19:21:51,2022-01-09 19:33:48,Elston Ave & Cortland St,TA1305000039,Halsted St & Willow St,TA1307000166,41.91643342912655,-87.66674637794495,41.913865,-87.648755,member
DA6F4A2DA5E55FC8,classic_bike,2022-01-17 12:56:18,2022-01-17 13:03:03,Michigan Ave & Jackson Blvd,TA1309000002,Michigan Ave & Washington St,13001,41.87785,-87.62408,41.8839840647265,-87.6246839761734,casual
56716B6626C86DDB,classic_bike,2022-01-28 19:04:32,2022-01-28 19:47:46,Halsted St & Willow St,TA1307000166,Halsted St & Willow St,TA1307000166,41.913865,-87.648755,41.913865,-87.648755,member
D92D8E07024CEB5E,electric_bike,2022-01-21 21:10:31,2022-01-21 21:14:18,Leavitt St & Belmont Ave,KA17018068,Rockwell St & Fletcher St,435,41.93928016666667,-87.68329833333334,41.94,-87.69,member
53544AA4E1E09284,electric_bike,2022-01-11 15:56:40,2022-01-11 16:02:12,Franklin St & Jackson Blvd,TA1305000025,Daley Center Plaza,TA1306000010,41.87781916666667,-87.63534833333334,41.884241,-87.629634,casual
1067BD79083E7EF7,classic_bike,2022-01-23 10:27:40,2022-01-23 10:34:23,Clark St & Armitage Ave,13146,Halsted St & Willow St,TA1307000166,41.918306,-87.636282,41.913865,-87.648755,member
34E0ED542DD08BAA,electric_bike,2022-01-22 18:26:41,2022-01-22 18:36:34,Wells St & Huron St,TA1306000012,N Green St & W Lake St,20246.0,41.8950025,-87.6344755,41.89,-87.65,member
FCDE6F7E308C2183,classic_bike,2022-01-25 10:26:51,2022-01-25 10:33:35,Clark St & Randolph St,TA1305000030,Wells St & Polk St,SL-011,41.884576228,-87.63188991,41.872596,-87.633502,member
DA2A00F29BA67FA3,classic_bike,2022-01-17 13:38:59,2022-01-17 14:04:58,Michigan Ave & Jackson Blvd,TA1309000002,Field Museum,13029,41.87785,-87.62408,41.865312,-87.617867,casual
5BBAB563F6DE24ED,classic_bike,2022-01-23 13:21:32,2022-01-23 13:29:54,Halsted St & Archer Ave,TA1308000013,Emerald Ave & 31st St,TA1309000055,41.847203,-87.646795,41.838198,-87.645143,member
4F28035D9BD56630,electric_bike,2022-01-21 07:20:52,2022-01-21 07:25:38,Sheffield Ave & Wellington Ave,TA1307000052,Sheffield Ave & Webster Ave,TA1309000033,41.936362386,-87.652593613,41.92154,-87.653818,member
0D9D8955C66CDB64,classic_bike,2022-01-06 06:57:21,2022-01-06 06:57:40,State St & Randolph St,TA1305000029,State St & Randolph St,TA1305000029,41.88462107257936,-87.62783423066139,41.88462107257936,-87.62783423066139,member
9ADB314EE703A901,classic_bike,2022-01-15 14:28:38,2022-01-15 14:33:09,Canal St & Monroe St,13056,Financial Pl & Ida B Wells Dr,SL-010,41.88169,-87.63953,41.8750236280333,-87.6330940425396,casual
1362436C439F7D0C,electric_bike,2022-01-17 19:05:06,2022-01-17 19:43:06,Ashland Ave & Division St,13061,Honore St & Division St,TA1305000034,41.90302074,-87.667936802,41.903119,-87.673935,casual
8B4B7CDC08980910,classic_bike,2022-01-14 11:15:45,2022-01-14 11:39:01,Emerald Ave & 31st St,TA1309000055,State St & 54th St,646,41.838198,-87.645143,41.796642,-87.625923,casual
DEACE8EC0B366606,classic_bike,2022-01-25 14:39:46,2022-01-25 14:44:04,State St & Randolph St,TA1305000029,Cityfront Plaza Dr & Pioneer Ct,13427,41.88462107257936,-87.62783423066139,41.890573,-87.622072,member
0791367C6B243345,electric_bike,2022-01-17 16:59:10,2022-01-17 17:02:50,Sedgwick St & North Ave,TA1307000038,Wells St & Elm St,KA1504000135,41.91132966666667,-87.63870633333333,41.903222,-87.634324,casual
6B540CAD31D72B37,classic_bike,2022-01-30 09:06:03,2022-01-30 09:14:44,Leavitt St & Chicago Ave,18058,Milwaukee Ave & Wabansia Ave,13243,41.895501,-87.682017,41.912616,-87.681391,member
30B9D9FF9509D4A5,classic_bike,2022-01-18 16:22:28,2022-01-18 16:31:13,Michigan Ave & Jackson Blvd,TA1309000002,Canal St & Madison St,13341,41.87785,-87.62408,41.882091,-87.639833,member
AD936FBD46F5A5B2,classic_bike,2022-01-13 15:42:35,2022-01-13 15:57:20,Honore St & Division St,TA1305000034,Damen Ave & Clybourn Ave,13271,41.903119,-87.673935,41.931931,-87.677856,member
849528276818A5DF,classic_bike,2022-01-11 10:09:12,2022-01-11 10:13:12,Federal St & Polk St,SL-008,Franklin St & Jackson Blvd,TA1305000025,41.87207763285,-87.6295437729,41.8777079559,-87.6353211408,casual
0067EBB4F707DB87,classic_bike,2022-01-07 08:13:16,2022-01-07 08:17:34,Wells St & Huron St,TA1306000012,Dearborn Pkwy & Delaware Pl,TA1307000128,41.894722,-87.634362,41.898969,-87.629912,member
EFBB2346F2594032,classic_bike,2022-01-27 16:22:39,2022-01-27 16:50:09,State St & 35th St,TA1307000129,Shore Dr & 55th St,TA1308000009,41.8310363140161,-87.62679755687714,41.795212,-87.580715,member
C8D0822E8C36D4AA,electric_bike,2022-01-09 00:23:08,2022-01-09 00:23:19,N Green St & W Lake St,20246.0,N Green St & W Lake St,20246.0,41.89,-87.65,41.89,-87.65,casual
B15F83189040CC8B,classic_bike,2022-01-19 13:56:17,2022-01-19 14:02:58,Wells St & Huron St,TA1306000012,Cityfront Plaza Dr & Pioneer Ct,13427,41.894722,-87.634362,41.890573,-87.622072,member
3BF800620B01ACCD,electric_bike,2022-01-08 13:08:03,2022-01-08 13:09:07,Clark St & Lake St,KA1503000012,State St & Randolph St,TA1305000029,41.88582921,-87.631219864,41.88462107257936,-87.62783423066139,member
85D5DDB4031D23D0,electric_bike,2022-01-07 16:09:07,2022-01-07 16:18:57,Clinton St & Lake St,13021,Clinton St & Lake St,13021,41.88562766666666,-87.641882,41.885637,-87.641823,member
C2F7DD78E82EC875,electric_bike,2022-01-13 11:59:47,2022-01-13 12:02:44,Glenwood Ave & Touhy Ave,525,Clark St & Touhy Ave,RP-007,42.0128005,-87.665906,42.01256011541,-87.6743671152,casual
193CB07443685870,classic_bike,2022-01-09 17:29:09,2022-01-09 17:48:29,Albany Ave & Montrose Ave,15621,Sheridan Rd & Buena Ave,TA1309000027,41.961041,-87.705866,41.958494,-87.654966,member
05C12DD78A9EDB51,electric_bike,2022-01-12 16:17:09,2022-01-12 16:56:44,Clarendon Ave & Leland Ave,TA1307000119,Clarendon Ave & Leland Ave,TA1307000119,41.967971087,-87.650006533,41.967968,-87.650001,casual
1609E42E5DAEBFA8,classic_bike,2022-01-13 11:43:43,2022-01-13 12:04:52,Millennium Park,13008,Columbus Dr & Randolph St,13263,41.8810317,-87.62408432,41.884728,-87.619521,casual
511701D849201618,classic_bike,2022-01-17 18:05:39,2022-01-17 18:08:28,Ellis Ave & 53rd St,KA1503000052,Kimbark Ave & 53rd St,TA1309000037,41.79933626261,-87.6009581145,41.799568,-87.594747,member
74B3EC8360CB69C6,electric_bike,2022-01-06 12:29:18,2022-01-06 12:40:21,Ashland Ave & Division St,13061,Green St & Madison St,TA1307000120,41.903399,-87.66829366666667,41.881892,-87.648789,member
FBAFCC9567811E92,classic_bike,2022-01-21 17:52:43,2022-01-21 17:59:44,Honore St & Division St,TA1305000034,Western Ave & Walton St,KA1504000103,41.903119,-87.673935,41.89841768945,-87.6865960164,member
59DF01FA84DFE87F,classic_bike,2022-01-04 18:32:12,2022-01-04 18:36:05,LaSalle St & Jackson Blvd,TA1309000004,Wells St & Polk St,SL-011,41.878166,-87.631929,41.872596,-87.633502,member
F51802274B59A89D,classic_bike,2022-01-18 21:02:26,2022-01-18 21:10:56,Wells St & Concord Ln,TA1308000050,State St & Pearson St,TA1307000061,41.912133,-87.634656,41.897448,-87.628722,casual
6D9C7C12A61D7DFD,classic_bike,2022-01-19 09:13:51,2022-01-19 09:25:43,Racine Ave & 15th St,13304,Wood St & Taylor St (Temp),13285,41.861267,-87.656625,41.869265218438194,-87.67373085021973,casual
921392AA2C41D9C0,electric_bike,2022-01-17 06:08:22,2022-01-17 06:17:00,Lincoln Ave & Belmont Ave,TA1309000042,Stockton Dr & Wrightwood Ave,13276,41.939546,-87.668335,41.93132,-87.638742,member
30B6ECF4F6994E93,classic_bike,2022-01-02 15:28:40,2022-01-02 15:43:49,Indiana Ave & Roosevelt Rd,SL-005,Wells St & Polk St,SL-011,41.867888,-87.623041,41.872596,-87.633502,casual
F174EEC5B2BD057D,classic_bike,2022-01-03 07:54:49,2022-01-03 08:02:26,Indiana Ave & Roosevelt Rd,SL-005,LaSalle St & Jackson Blvd,TA1309000004,41.867888,-87.623041,41.878166,-87.631929,member
3E41CD8FFFA5EED5,classic_bike,2022-01-14 14:20:21,2022-01-14 14:26:48,Ashland Ave & Division St,13061,Carpenter St & Huron St,13196,41.90345,-87.667747,41.894556,-87.653449,member
147C642F4CAF886B,electric_bike,2022-01-11 17:41:17,2022-01-11 17:46:24,Ashland Ave & Grace St,13319,Broadway & Waveland Ave,13325,41.9506475,-87.66869366666667,41.949074,-87.648636,member
76B9023E1B10F313,classic_bike,2022-01-30 15:28:01,2022-01-30 15:31:48,Halsted St & 37th St,TA1307000161,Morgan St & Pershing Rd,16933,41.827059,-87.64572,41.823613,-87.650931,member
32D29EBCCBD6ED30,classic_bike,2022-01-27 16:18:12,2022-01-27 16:23:25,University Ave & 57th St,KA1503000071,Ellis Ave & 53rd St,KA1503000052,41.791478,-87.599861,41.79933626261,-87.6009581145,member
D07021B485C51684,classic_bike,2022-01-18 13:42:36,2022-01-18 13:53:56,Rush St & Superior St,15530,Daley Center Plaza,TA1306000010,41.89576474564,-87.6259080327,41.884241,-87.629634,member
ED5BAAA1DEFA47AB,classic_bike,2022-01-06 15:42:29,2022-01-06 15:42:40,Sheridan Rd & Lawrence Ave,TA1309000041,Sheridan Rd & Lawrence Ave,TA1309000041,41.969517,-87.654691,41.969517,-87.654691,member
15D6F84CCB902A27,electric_bike,2022-01-05 10:00:38,2022-01-05 10:02:17,LaSalle St & Jackson Blvd,TA1309000004,Franklin St & Monroe St,TA1309000007,41.8781185,-87.63220866666667,41.880317,-87.635185,member
EA8625165C362C5C,classic_bike,2022-01-13 08:58:33,2022-01-13 09:12:01,Wabash Ave & 16th St,SL-012,State St & Van Buren St,TA1305000035,41.860384,-87.625813,41.877181,-87.627844,member
B252C8293DFE8B02,classic_bike,2022-01-12 23:28:20,2022-01-12 23:42:56,Shore Dr & 55th St,TA1308000009,Shore Dr & 55th St,TA1308000009,41.795212,-87.580715,41.795212,-87.580715,casual
6C2EABFA0D838F15,classic_bike,2022-01-15 07:50:37,2022-01-15 07:54:42,State St & Randolph St,TA1305000029,Cityfront Plaza Dr & Pioneer Ct,13427,41.88462107257936,-87.62783423066139,41.890573,-87.622072,member
13F048AECD77625B,classic_bike,2022-01-22 13:21:32,2022-01-22 13:22:13,Michigan Ave & Jackson Blvd,TA1309000002,Michigan Ave & Jackson Blvd,TA1309000002,41.87785,-87.62408,41.87785,-87.62408,casual
49B86723AAFD61FE,electric_bike,2022-01-13 14:30:37,2022-01-13 14:36:12,Wells St & Concord Ln,TA1308000050,Bissell St & Armitage Ave,13059,41.91195,-87.634935,41.91801814237187,-87.65218198299408,member
52EF6DA102159049,classic_bike,2022-01-24 16:00:44,2022-01-24 16:03:37,Ashland Ave & Chicago Ave,13247,Ashland Ave & Grand Ave,13434,41.8959743225961,-87.66772538423538,41.891072,-87.666611,member
28F4C3B32AD6C484,classic_bike,2022-01-01 13:03:56,2022-01-01 13:07:39,Michigan Ave & Jackson Blvd,TA1309000002,Michigan Ave & Jackson Blvd,TA1309000002,41.87785,-87.62408,41.87785,-87.62408,casual
14B1750580C8E751,classic_bike,2022-01-16 18:30:22,2022-01-16 18:36:26,Wabash Ave & Grand Ave,TA1307000117,Clark St & Lake St,KA1503000012,41.891466,-87.626761,41.88602082773,-87.6308760584,member
C8C5C647AD32221A,electric_bike,2022-01-20 15:45:53,2022-01-20 16:02:01,Seeley Ave & Roscoe St,13144,N Southport Ave & W Newport Ave,20257.0,41.94333,-87.67967533333334,41.94,-87.66,member
55A3D71B049B72B2,classic_bike,2022-01-29 20:58:59,2022-01-29 21:22:00,Calumet Ave & 35th St,13345,Racine Ave & 18th St,13164,41.831379,-87.618034,41.858166,-87.656495,member
9D78C4B495DF3114,classic_bike,2022-01-06 19:53:10,2022-01-06 20:40:07,Winthrop Ave & Lawrence Ave,TA1308000021,Lincoln Ave & Waveland Ave,13253,41.968812,-87.657659,41.948797,-87.675278,member
E6B6D4531ADC9F52,classic_bike,2022-01-15 17:41:15,2022-01-15 17:48:54,Sheffield Ave & Fullerton Ave,TA1306000016,Ashland Ave & Wrightwood Ave,13296,41.9256018819,-87.6537080423,41.92883,-87.668507,member
25C474E475B81E10,docked_bike,2022-01-04 13:28:48,2022-01-04 13:59:53,Millennium Park,13008,Streeter Dr & Grand Ave,13022,41.881032,-87.624084,41.892278,-87.612043,casual
7ADFE1DF961FF25E,classic_bike,2022-01-27 14:06:18,2022-01-27 14:17:22,Racine Ave & Fullerton Ave,TA1306000026,Ashland Ave & Blackhawk St,13224,41.92556258,-87.65840426,41.907066,-87.667252,member
75980C8BA841C85D,electric_bike,2022-01-24 06:18:35,2022-01-24 06:38:17,Lincoln Ave & Belmont Ave,TA1309000042,Stockton Dr & Wrightwood Ave,13276,41.939275333333335,-87.668345,41.93132,-87.638742,member
00B75C185133B6D5,classic_bike,2022-01-10 17:05:17,2022-01-10 17:13:24,Ashland Ave & Division St,13061,Milwaukee Ave & Wabansia Ave,13243,41.90345,-87.667747,41.912616,-87.681391,casual
198CB1EA09E09782,electric_bike,2022-01-30 19:29:51,2022-01-30 19:39:15,Sheffield Ave & Wellington Ave,TA1307000052,Lincoln Ave & Waveland Ave,13253,41.936429739,-87.652769685,41.948797,-87.675278,member
559567735B94AD6B,electric_bike,2022-01-12 16:15:44,2022-01-12 16:56:41,Clarendon Ave & Leland Ave,TA1307000119,Clarendon Ave & Leland Ave,TA1307000119,41.968003333333336,-87.65006366666667,41.967968,-87.650001,casual
B8B86A0A075A456E,classic_bike,2022-01-17 06:52:50,2022-01-17 06:58:54,Wells St & Huron St,TA1306000012,St. Clair St & Erie St,13016,41.894722,-87.634362,41.89434513742426,-87.62279838323593,casual
9C9D32A6465B61E3,electric_bike,2022-01-21 11:07:25,2022-01-21 11:15:09,Clarendon Ave & Leland Ave,TA1307000119,Sheridan Rd & Irving Park Rd,13063,41.96794416666667,-87.64999083333333,41.954245,-87.654406,casual
BDC4AB637EDF981B,classic_bike,2022-01-30 18:32:52,2022-01-30 18:49:26,Oakley Ave & Irving Park Rd,KA1504000158,Broadway & Sheridan Rd,13323,41.95434085219,-87.6860796243,41.952833,-87.649993,member
FC417B9C430863F9,classic_bike,2022-01-22 09:24:45,2022-01-22 09:28:32,Clarendon Ave & Junior Ter,13389,Clarendon Ave & Leland Ave,TA1307000119,41.961004,-87.649603,41.967968,-87.650001,member
88FB3019A636F392,classic_bike,2022-01-04 12:59:57,2022-01-04 13:10:20,Cornell Ave & Hyde Park Blvd,KA1503000007,Kimbark Ave & 53rd St,TA1309000037,41.802406,-87.586924,41.799568,-87.594747,member
64CA42FCA02E5148,classic_bike,2022-01-12 14:37:54,2022-01-12 14:38:07,State St & Pearson St,TA1307000061,State St & Pearson St,TA1307000061,41.897448,-87.628722,41.897448,-87.628722,member
629E5D690C9CDBBA,classic_bike,2022-01-19 08:08:28,2022-01-19 08:13:14,Leavitt St & Division St,658,Ashland Ave & Division St,13061,41.902997,-87.683825,41.90345,-87.667747,member
E102BE10041857B4,electric_bike,2022-01-13 09:54:40,2022-01-13 10:01:55,Dearborn St & Van Buren St,624,Sedgwick St & Huron St,TA1307000062,41.876314163,-87.629219532,41.894666,-87.638437,member
A4EE704382E05FC2,classic_bike,2022-01-13 08:17:38,2022-01-13 08:26:32,Franklin St & Jackson Blvd,TA1305000025,Aberdeen St & Monroe St,13156,41.8777079559,-87.6353211408,41.880419,-87.655519,member
997A17B1D0CEFEB7,classic_bike,2022-01-08 14:58:46,2022-01-08 15:07:26,Sheridan Rd & Buena Ave,TA1309000027,Halsted St & Roscoe St,TA1309000025,41.958494,-87.654966,41.94367,-87.64895,member
19DB4F88AD0782D4,electric_bike,2022-01-02 09:28:06,2022-01-02 09:37:41,Wabash Ave & Grand Ave,TA1307000117,Clybourn Ave & Division St,TA1307000115,41.891388166666665,-87.62679766666666,41.904613,-87.640552,member
D9409289187E5A99,electric_bike,2022-01-18 08:59:19,2022-01-18 09:13:10,Clinton St & Roosevelt Rd,WL-008,Emerald Ave & 31st St,TA1309000055,41.86703283333333,-87.641012,41.838198,-87.645143,member
8B1878C02D44D0AE,electric_bike,2022-01-21 09:59:44,2022-01-21 10:27:14,Milwaukee Ave & Cuyler Ave,16991,Ashland Ave & Belle Plaine Ave,13249,41.9544705,-87.7495245,41.956057,-87.668835,casual
865F51472CDEC97A,classic_bike,2022-01-13 17:24:10,2022-01-13 17:45:57,State St & 35th St,TA1307000129,Blue Island Ave & 18th St,13135,41.8310363140161,-87.62679755687714,41.857556,-87.661535,member
3D910BF0DB13C1FD,electric_bike,2022-01-26 20:36:08,2022-01-26 20:52:47,Ashland Ave & Grand Ave,13434,Stave St & Armitage Ave,13266,41.891078666666665,-87.66669566666667,41.917741,-87.691392,member
53E81684CBD0D481,classic_bike,2022-01-28 15:44:11,2022-01-28 16:14:44,State St & 35th St,TA1307000129,Shore Dr & 55th St,TA1308000009,41.8310363140161,-87.62679755687714,41.795212,-87.580715,member
92C5CD2AD209474D,electric_bike,2022-01-14 12:26:40,2022-01-14 12:34:21,State St & Harrison St,SL-007,Michigan Ave & 18th St,13150,41.87397583333333,-87.62753533333333,41.857813,-87.62455,member
31153697583A8900,classic_bike,2022-01-19 13:11:46,2022-01-19 13:22:16,Millennium Park,13008,Streeter Dr & Grand Ave,13022,41.8810317,-87.62408432,41.892278,-87.612043,member
1AEAF518676D3B45,classic_bike,2022-01-27 17:05:03,2022-01-27 17:14:38,Broadway & Granville Ave,15571,Clark St & Schreiber Ave,KA1504000156,41.9947796884,-87.6602845349,41.99925182186,-87.6713773393,member
40C9DFE4CFB178A3,classic_bike,2022-01-20 16:56:41,2022-01-20 17:13:38,State St & Harrison St,SL-007,Sedgwick St & Huron St,TA1307000062,41.874053,-87.627716,41.894666,-87.638437,member
873DC1EE8553B8D4,classic_bike,2022-01-11 22:35:25,2022-01-11 23:45:00,State St & Randolph St,TA1305000029,State St & Randolph St,TA1305000029,41.88462107257936,-87.62783423066139,41.88462107257936,-87.62783423066139,casual
8830C3F186F310DC,electric_bike,2022-01-06 09:20:08,2022-01-06 09:29:38,Clinton St & Lake St,13021,St. Clair St & Erie St,13016,41.885481,-87.64198433333334,41.89434513742426,-87.62279838323593,member
83A0DBCD149DCF99,electric_bike,2022-01-13 17:53:56,2022-01-13 18:04:27,Sedgwick St & Webster Ave,13191,Halsted St & Willow St,TA1307000166,41.92220916666667,-87.63901,41.913865,-87.648755,member
1060D99FAF5F5479,electric_bike,2022-01-22 10:29:20,2022-01-22 10:39:37,Winthrop Ave & Lawrence Ave,TA1308000021,Broadway & Sheridan Rd,13323,41.968881333333336,-87.657706,41.952833,-87.649993,member
80E03D6434AC14D8,electric_bike,2022-01-02 15:24:58,2022-01-02 15:43:32,Indiana Ave & Roosevelt Rd,SL-005,Wells St & Polk St,SL-011,41.8680845,-87.62302416666667,41.872596,-87.633502,casual
B31DE7A2BE88220B,classic_bike,2022-01-21 16:19:53,2022-01-21 16:39:16,Halsted St & 18th St,13099,Indiana Ave & 26th St,TA1307000005,41.85750568031716,-87.64599144458771,41.845687,-87.622481,member
51B0B97453238E08,classic_bike,2022-01-31 19:08:48,2022-01-31 19:30:07,Wabash Ave & Roosevelt Rd,TA1305000002,Streeter Dr & Grand Ave,13022,41.867227,-87.625961,41.892278,-87.612043,member
1FE0258D6B8FCF2F,classic_bike,2022-01-13 09:31:28,2022-01-13 09:36:45,Indiana Ave & Roosevelt Rd,SL-005,Michigan Ave & Jackson Blvd,TA1309000002,41.867888,-87.623041,41.87785,-87.62408,member
6D6B462903DCB23F,electric_bike,2022-01-10 06:44:21,2022-01-10 06:51:28,Racine Ave & 15th St,13304,Wolcott Ave & Polk St,TA1309000064,41.86120735,-87.65659986666667,41.871262,-87.673688,member
BA0166F6FC7F3173,classic_bike,2022-01-21 18:36:35,2022-01-21 18:53:24,Sheffield Ave & Fullerton Ave,TA1306000016,Damen Ave & Wellington Ave,13268,41.9256018819,-87.6537080423,41.93588,-87.67842,member
CBA4A933FB9A4FA9,classic_bike,2022-01-13 07:21:43,2022-01-13 07:32:38,Canal St & Monroe St,13056,Columbus Dr & Randolph St,13263,41.88169,-87.63953,41.884728,-87.619521,member
8D8F0C47376ABE26,classic_bike,2022-01-23 15:23:03,2022-01-23 15:27:03,Ashland Ave & Division St,13061,Damen Ave & Thomas St (Augusta Blvd),TA1307000070,41.90345,-87.667747,41.901315,-87.677409,member
B19D1ED94E319D42,electric_bike,2022-01-15 16:14:20,2022-01-15 16:22:40,Clark St & North Ave,13128,Clifton Ave & Armitage Ave,TA1307000163,41.91189599,-87.632237434,41.918216,-87.656936,member
2C41E3CC95084D75,electric_bike,2022-01-05 08:24:54,2022-01-05 08:28:14,Wells St & Huron St,TA1306000012,Dearborn Pkwy & Delaware Pl,TA1307000128,41.894761443,-87.634352088,41.898969,-87.629912,member
E868BE29F0DD5978,classic_bike,2022-01-18 14:24:58,2022-01-18 14:29:55,May St & Cullerton St,13331,Blue Island Ave & 18th St,13135,41.855136,-87.654127,41.857556,-87.661535,member
28C7F452222DB0EF,electric_bike,2022-01-13 22:08:48,2022-01-13 22:11:17,Indiana Ave & 31st St,TA1308000036,Rhodes Ave & 32nd St,13215,41.83872766666666,-87.621853,41.836208,-87.613533,member
4498EE1461DCF780,classic_bike,2022-01-11 10:43:13,2022-01-11 10:49:14,Indiana Ave & 31st St,TA1308000036,State St & 35th St,TA1307000129,41.838842,-87.621857,41.8310363140161,-87.62679755687714,member
27F0620DD645F9FC,electric_bike,2022-01-28 19:41:59,2022-01-28 19:52:14,Michigan Ave & 14th St,TA1307000124,Wells St & Polk St,SL-011,41.864404,-87.6238575,41.872596,-87.633502,casual
4C446408F6C31554,classic_bike,2022-01-18 12:18:40,2022-01-18 12:37:06,Spaulding Ave & Division St,15654,Spaulding Ave & Division St,15654,41.90270659438,-87.709219571,41.90270659438,-87.709219571,casual
3B1AD7D3E7C7D60F,classic_bike,2022-01-18 10:56:06,2022-01-18 11:01:12,Clarendon Ave & Junior Ter,13389,Sheridan Rd & Lawrence Ave,TA1309000041,41.961004,-87.649603,41.969517,-87.654691,member
813A1C5DA6EF68E3,docked_bike,2022-01-02 16:39:40,2022-01-02 16:50:01,Dusable Harbor,KA1503000064,Streeter Dr & Grand Ave,13022,41.886976,-87.612813,41.892278,-87.612043,casual
C7DF43663B9249CF,classic_bike,2022-01-20 07:06:37,2022-01-20 07:10:07,Ashland Ave & Division St,13061,Paulina Ave & North Ave,TA1305000037,41.90345,-87.667747,41.90985465216731,-87.66993016004562,member
E187AC91FD3A717E,classic_bike,2022-01-12 08:55:06,2022-01-12 09:09:10,Michigan Ave & Washington St,13001,Ada St & Washington Blvd,13353,41.8839840647265,-87.6246839761734,41.88283,-87.661206,member
9A4943FCDB17EFE6,classic_bike,2022-01-31 17:17:35,2022-01-31 17:22:38,Wells St & Huron St,TA1306000012,Wells St & Elm St,KA1504000135,41.894722,-87.634362,41.903222,-87.634324,member
BED4C85EFEC96614,classic_bike,2022-01-07 14:18:41,2022-01-07 14:23:19,Ellis Ave & 55th St,KA1504000076,Lake Park Ave & 56th St,TA1309000063,41.79430062054,-87.6014497734,41.793242,-87.587782,member
45210F936B456B28,classic_bike,2022-01-12 14:38:30,2022-01-12 15:03:59,State St & Pearson St,TA1307000061,Clybourn Ave & Division St,TA1307000115,41.897448,-87.628722,41.904613,-87.640552,member
57BD46B1419F9C89,classic_bike,2022-01-26 14:56:08,2022-01-26 15:11:29,Franklin St & Jackson Blvd,TA1305000025,Wabash Ave & 16th St,SL-012,41.8777079559,-87.6353211408,41.860384,-87.625813,casual
8F03EA266D0A3D4E,classic_bike,2022-01-21 18:04:23,2022-01-21 18:18:59,California Ave & Altgeld St,15646,California Ave & Cortez St,17660,41.92669,-87.697668,41.900363,-87.696704,casual
78168928DF06A497,classic_bike,2022-01-28 17:21:59,2022-01-28 17:26:54,Michigan Ave & Jackson Blvd,TA1309000002,Indiana Ave & Roosevelt Rd,SL-005,41.87785,-87.62408,41.867888,-87.623041,member
E30EBEA1BAA6CB0C,electric_bike,2022-01-03 13:58:38,2022-01-03 14:06:55,Wells St & Huron St,TA1306000012,Dearborn Pkwy & Delaware Pl,TA1307000128,41.8947825,-87.63476016666667,41.898969,-87.629912,casual
5D2D4785C25217C0,electric_bike,2022-01-16 19:27:36,2022-01-16 19:33:15,Western Ave & 21st St,13091,Western Ave & Fillmore St,644,41.85403883333333,-87.68586266666667,41.868563,-87.686234,member
6A843EDF5E0E5AA1,classic_bike,2022-01-28 18:41:11,2022-01-28 19:04:18,Halsted St & Willow St,TA1307000166,Halsted St & Willow St,TA1307000166,41.913865,-87.648755,41.913865,-87.648755,member
AA2DA93F48823E9C,electric_bike,2022-01-05 21:26:01,2022-01-05 21:33:06,Millennium Park,13008,Wells St & Polk St,SL-011,41.88104233333333,-87.62403666666667,41.872596,-87.633502,member
41E4A3104B58AEE4,electric_bike,2022-01-17 16:51:50,2022-01-17 16:56:19,California Ave & Cortez St,17660,Spaulding Ave & Division St,15654,41.90035983333333,-87.69671966666667,41.90270659438,-87.709219571,member
989A5A72BE871865,electric_bike,2022-01-23 16:21:45,2022-01-23 16:28:42,Damen Ave & Charleston St,13288,Honore St & Division St,TA1305000034,41.920078833333335,-87.67793133333333,41.903119,-87.673935,member
E4C578629FD75DE6,electric_bike,2022-01-01 00:41:21,2022-01-01 00:57:30,Halsted St & Willow St,TA1307000166,Broadway & Sheridan Rd,13323,41.9138635,-87.64870133333334,41.952833,-87.649993,member
B252A0F289A11AF6,electric_bike,2022-01-29 19:17:28,2022-01-29 19:37:49,California Ave & Cortez St,17660,Clark St & Lake St,KA1503000012,41.90033366666667,-87.69661983333333,41.88602082773,-87.6308760584,member
D7BC3A737EC124BB,electric_bike,2022-01-04 12:54:31,2022-01-04 13:05:40,Canal St & Taylor St,15550,Daley Center Plaza,TA1306000010,41.870189,-87.63948316666666,41.884241,-87.629634,member
7C3AA6A06CE0D118,classic_bike,2022-01-31 18:53:32,2022-01-31 19:01:41,Wabash Ave & 9th St,TA1309000010,Daley Center Plaza,TA1306000010,41.870769,-87.625734,41.884241,-87.629634,member
666A8B70292C62AB,docked_bike,2022-01-20 19:16:04,2022-01-20 19:59:22,Theater on the Lake,TA1308000001,Theater on the Lake,TA1308000001,41.926277,-87.630834,41.926277,-87.630834,casual
49FD38994D96D310,classic_bike,2022-01-13 12:10:30,2022-01-13 12:16:27,Wilton Ave & Diversey Pkwy,TA1306000014,Sheffield Ave & Webster Ave,TA1309000033,41.932418,-87.652705,41.92154,-87.653818,casual
BAABC3243A1931AB,electric_bike,2022-01-15 12:43:12,2022-01-15 12:50:47,Indiana Ave & Roosevelt Rd,SL-005,Clinton St & Roosevelt Rd,WL-008,41.86781616666666,-87.62298116666666,41.8671177825,-87.6410879593,member
A0CD35E9AF947081,classic_bike,2022-01-24 11:24:10,2022-01-24 11:33:51,State St & Pearson St,TA1307000061,Daley Center Plaza,TA1306000010,41.897448,-87.628722,41.884241,-87.629634,member
FB258EEBE89F4E17,classic_bike,2022-01-02 17:56:18,2022-01-02 18:05:38,Sheffield Ave & Fullerton Ave,TA1306000016,Stockton Dr & Wrightwood Ave,13276,41.9256018819,-87.6537080423,41.93132,-87.638742,member
69199D5F69270C54,classic_bike,2022-01-21 10:55:32,2022-01-21 11:03:38,State St & Harrison St,SL-007,Canal St & Taylor St,15550,41.874053,-87.627716,41.870257,-87.639474,member
F5827E53E5721DCF,classic_bike,2022-01-09 13:20:29,2022-01-09 13:22:21,Ellis Ave & 58th St,TA1309000011,University Ave & 57th St,KA1503000071,41.788746,-87.601334,41.791478,-87.599861,member
2A8B48031AADBFB0,classic_bike,2022-01-03 17:10:52,2022-01-03 17:16:42,Leavitt St & Division St,658,Western Ave & Walton St,KA1504000103,41.902997,-87.683825,41.89841768945,-87.6865960164,member
935240B308352420,classic_bike,2022-01-13 16:31:15,2022-01-13 16:36:38,Campbell Ave & North Ave,13257,California Ave & North Ave,13258,41.910535,-87.689556,41.91044,-87.6972,member
651A2A85DCAEFFAB,docked_bike,2022-01-24 17:08:15,2022-01-24 17:23:23,Indiana Ave & 31st St,TA1308000036,Indiana Ave & 31st St,TA1308000036,41.838842,-87.621857,41.838842,-87.621857,casual
B0F0B014BF085866,classic_bike,2022-01-22 11:46:53,2022-01-22 11:59:20,Wells St & Concord Ln,TA1308000050,Clark St & Lake St,KA1503000012,41.912133,-87.634656,41.88602082773,-87.6308760584,member
FFE1738F89B8A14F,electric_bike,2022-01-12 15:43:02,2022-01-12 15:57:07,Wood St & Hubbard St,13432,Blue Island Ave & 18th St,13135,41.88987633333333,-87.671532,41.857556,-87.661535,casual
167B7CDF49DCEC3D,classic_bike,2022-01-07 10:56:35,2022-01-07 11:20:48,California Ave & Altgeld St,15646,Wood St & Augusta Blvd,657,41.92669,-87.697668,41.899181,-87.6722,casual
4F6CB42509190E54,classic_bike,2022-01-10 09:40:14,2022-01-10 09:44:06,Ashland Ave & Grand Ave,13434,Ashland Ave & Lake St,13073,41.891072,-87.666611,41.88592,-87.66717,member
0503503AFC01E82E,classic_bike,2022-01-25 11:34:35,2022-01-25 11:47:54,Wabash Ave & 16th St,SL-012,Clark St & Lake St,KA1503000012,41.860384,-87.625813,41.88602082773,-87.6308760584,member
E03318D900F584CC,classic_bike,2022-01-25 11:41:21,2022-01-25 11:42:20,Clinton St & Lake St,13021,Clinton St & Lake St,13021,41.885637,-87.641823,41.885637,-87.641823,member
53176737E120F8C2,electric_bike,2022-01-17 15:09:21,2022-01-17 15:18:52,LaSalle St & Jackson Blvd,TA1309000004,Canal St & Taylor St,15550,41.87823233333334,-87.63109683333333,41.870257,-87.639474,member
5B4B08BC3FB441D1,classic_bike,2022-01-11 14:40:17,2022-01-11 14:44:33,Sheffield Ave & Kingsbury St,13154,Clifton Ave & Armitage Ave,TA1307000163,41.910522,-87.653106,41.918216,-87.656936,member
6F6D31CA08716588,classic_bike,2022-01-12 14:23:54,2022-01-12 14:28:13,Shore Dr & 55th St,TA1308000009,Lake Park Ave & 56th St,TA1309000063,41.795212,-87.580715,41.793242,-87.587782,member
12A1322674C7D627,classic_bike,2022-01-07 15:55:40,2022-01-07 16:04:56,Clark St & Drummond Pl,TA1307000142,Halsted St & Willow St,TA1307000166,41.931248,-87.644336,41.913865,-87.648755,member
739C99FA688E4943,classic_bike,2022-01-13 17:17:42,2022-01-13 17:21:56,Paulina Ave & North Ave,TA1305000037,Ashland Ave & Division St,13061,41.90985465216731,-87.66993016004562,41.90345,-87.667747,member
EE1F6B4FB79C135F,classic_bike,2022-01-10 16:59:38,2022-01-10 17:12:08,Sheffield Ave & Kingsbury St,13154,Winchester Ave & Elston Ave,KA1504000140,41.910522,-87.653106,41.92409085038,-87.6764600747,member
7FEB9B88C0243ED7,classic_bike,2022-01-28 18:36:29,2022-01-28 18:57:14,LaSalle St & Washington St,13006,Damen Ave & Cortland St,13133,41.882664,-87.63253,41.915983,-87.677335,member
161E137C94F09C92,classic_bike,2022-01-18 07:38:35,2022-01-18 07:44:51,Sedgwick St & North Ave,TA1307000038,Sedgwick St & Webster Ave,13191,41.911386,-87.638677,41.922167,-87.638888,member
1EC49F39F1781CCD,electric_bike,2022-01-17 20:57:15,2022-01-17 21:11:25,California Ave & Altgeld St,15646,Western Ave & Division St,13241,41.926664,-87.697677,41.902893,-87.687275,casual
647CEFD12D67E3E2,classic_bike,2022-01-04 11:15:45,2022-01-04 11:38:06,Green St & Madison St,TA1307000120,Ashland Ave & Division St,13061,41.881892,-87.648789,41.90345,-87.667747,member
A16F83B417D4A1EF,classic_bike,2022-01-22 17:42:45,2022-01-22 18:04:46,Wabash Ave & 16th St,SL-012,Dearborn Pkwy & Delaware Pl,TA1307000128,41.860384,-87.625813,41.898969,-87.629912,member
9CCE1300E5EDF75A,electric_bike,2022-01-18 18:35:43,2022-01-18 18:52:16,Racine Ave & Washington Blvd,654,Sheffield Ave & Wrightwood Ave,TA1309000023,41.88311366666667,-87.65703183333333,41.928712,-87.653833,member
E6B649418B3A8D82,classic_bike,2022-01-05 09:23:26,2022-01-05 09:27:38,Federal St & Polk St,SL-008,LaSalle St & Adams St,KA1503000034,41.87207763285,-87.6295437729,41.87934437346,-87.6319852213,casual
68B9FA51B73800B0,classic_bike,2022-01-18 07:20:45,2022-01-18 07:32:28,Ogden Ave & Chicago Ave,TA1305000020,State St & Pearson St,TA1307000061,41.896362458,-87.6540612729,41.897448,-87.628722,member
C95CD342EB1A1D3D,classic_bike,2022-01-14 22:27:57,2022-01-14 22:53:02,Fairbanks Ct & Grand Ave,TA1305000003,St. Clair St & Erie St,13016,41.89184737210993,-87.62058019638062,41.89434513742426,-87.62279838323593,member
6F5FF8D143C14CA9,classic_bike,2022-01-28 16:57:21,2022-01-28 17:11:28,Larrabee St & Kingsbury St,TA1306000009,Clark St & Lake St,KA1503000012,41.897764,-87.642884,41.88602082773,-87.6308760584,casual
1F86AB19A517D526,classic_bike,2022-01-23 13:28:05,2022-01-23 13:42:39,Halsted St & Roscoe St,TA1309000025,Ashland Ave & Grace St,13319,41.94367,-87.64895,41.950687,-87.6687,member
3F7D518A3825C01B,electric_bike,2022-01-19 17:17:05,2022-01-19 17:29:17,Damen Ave & Thomas St (Augusta Blvd),TA1307000070,Winchester Ave & Elston Ave,KA1504000140,41.90148216666667,-87.67756233333333,41.92409085038,-87.6764600747,member
6921E7407ADE4A19,classic_bike,2022-01-13 06:43:42,2022-01-13 06:56:48,Ogden Ave & Chicago Ave,TA1305000020,St. Clair St & Erie St,13016,41.896362458,-87.6540612729,41.89434513742426,-87.62279838323593,member
4AB3D1F9D1D89C5A,electric_bike,2022-01-02 11:46:49,2022-01-02 11:56:16,Winthrop Ave & Lawrence Ave,TA1308000021,Wolcott (Ravenswood) Ave & Montrose Ave,TA1307000144,41.96888316666666,-87.65763583333333,41.961406,-87.676169,member
CA57E06ABB302D4A,classic_bike,2022-01-23 09:44:32,2022-01-23 09:51:15,Clinton St & Roosevelt Rd,WL-008,Wells St & Polk St,SL-011,41.8671177825,-87.6410879593,41.872596,-87.633502,member
66F83C11273DD2CE,docked_bike,2022-01-02 18:15:21,2022-01-02 18:24:04,Damen Ave & Charleston St,13288,Logan Blvd & Elston Ave,TA1308000031,41.920082,-87.677855,41.929465,-87.684158,casual
112F552C81162CB8,electric_bike,2022-01-14 13:13:24,2022-01-14 13:13:36,Rush St & Superior St,15530,Rush St & Superior St,15530,41.895770192,-87.626331329,41.89576474564,-87.6259080327,member
72EFAF745DFF67DE,electric_bike,2022-01-13 18:04:58,2022-01-13 18:27:14,Halsted St & Clybourn Ave,331,Clark St & Chicago Ave,13303,41.90958316666666,-87.64807366666666,41.89675,-87.63089,casual
346340C11E25EAF2,classic_bike,2022-01-20 18:27:03,2022-01-20 18:35:38,Clinton St & Polk St,15542,Clinton St & Washington Blvd,WL-012,41.87146651779,-87.6409491327,41.88338,-87.64117,casual
540AA7BDDCBAD648,classic_bike,2022-01-25 15:35:01,2022-01-25 15:37:20,Racine Ave & 15th St,13304,Racine Ave & 18th St,13164,41.861267,-87.656625,41.858166,-87.656495,member
FADED165C145B40C,electric_bike,2022-01-31 17:28:30,2022-01-31 17:33:42,Ashland Ave & Grace St,13319,Broadway & Waveland Ave,13325,41.9506475,-87.66867166666667,41.949074,-87.648636,member
B18EF4AEC2BC0FE0,classic_bike,2022-01-24 16:22:28,2022-01-24 16:26:12,Racine Ave & Fullerton Ave,TA1306000026,Greenview Ave & Fullerton Ave,TA1307000001,41.92556258,-87.65840426,41.92533,-87.6658,member
E2038354C0956114,electric_bike,2022-01-14 10:50:23,2022-01-14 10:58:19,Damen Ave & Cortland St,13133,Leavitt St & Division St,658,41.91596733333333,-87.677372,41.902997,-87.683825,casual
9845C94D9EB4FA2C,classic_bike,2022-01-02 02:31:36,2022-01-02 02:39:55,Clark St & Montrose Ave,KA1503000022,Sheridan Rd & Lawrence Ave,TA1309000041,41.961588,-87.666036,41.969517,-87.654691,member
872C51D6339E229A,classic_bike,2022-01-16 12:33:34,2022-01-16 12:44:33,Broadway & Sheridan Rd,13323,Racine Ave & Belmont Ave,TA1308000019,41.952833,-87.649993,41.939743,-87.658865,member
EC181728FD080F2D,classic_bike,2022-01-21 23:58:03,2022-01-22 00:10:37,Dearborn St & Adams St,TA1305000005,Clark St & Lake St,KA1503000012,41.8793563587,-87.6297910363,41.88602082773,-87.6308760584,casual
1C13C0D5D5DEF15A,electric_bike,2022-01-31 07:23:01,2022-01-31 07:29:38,Carpenter St & Huron St,13196,Clark St & Lake St,KA1503000012,41.894474387,-87.653423429,41.88602082773,-87.6308760584,casual
CA74DC60092EAF60,classic_bike,2022-01-05 15:17:50,2022-01-05 15:24:00,Canal St & Monroe St,13056,Orleans St & Merchandise Mart Plaza,TA1305000022,41.88169,-87.63953,41.888243,-87.63639,member
EBF0BB218F04E133,classic_bike,2022-01-24 19:07:37,2022-01-24 19:18:20,Michigan Ave & Jackson Blvd,TA1309000002,Wabash Ave & Grand Ave,TA1307000117,41.87785,-87.62408,41.891466,-87.626761,member
006D3F363CF9600B,electric_bike,2022-01-29 12:30:43,2022-01-29 12:43:04,Clarendon Ave & Leland Ave,TA1307000119,Broadway & Granville Ave,15571,41.967962,-87.6500285,41.9947796884,-87.6602845349,member
7555840BF7FDDDFD,classic_bike,2022-01-14 08:14:13,2022-01-14 08:28:51,Sedgwick St & Schiller St,TA1307000143,Stockton Dr & Wrightwood Ave,13276,41.907626,-87.638566,41.93132,-87.638742,member
6EC73A16CC56780D,classic_bike,2022-01-11 13:28:16,2022-01-11 13:32:28,Damen Ave & Chicago Ave,13132,Damen Ave & Thomas St (Augusta Blvd),TA1307000070,41.895769,-87.67722,41.901315,-87.677409,member
ABA3DE288B9D9A10,classic_bike,2022-01-12 09:49:49,2022-01-12 10:28:50,Glenwood Ave & Touhy Ave,525,Southport Ave & Clybourn Ave,TA1309000030,42.012701,-87.666058,41.920771,-87.663712,member
04EC503AB7123CCE,classic_bike,2022-01-22 15:33:10,2022-01-22 15:48:54,University Ave & 57th St,KA1503000071,Lake Park Ave & 47th St,TA1308000035,41.791478,-87.599861,41.809443,-87.591875,member
831EDC866385958E,classic_bike,2022-01-24 11:40:06,2022-01-24 11:47:45,Greenview Ave & Fullerton Ave,TA1307000001,Sheffield Ave & Webster Ave,TA1309000033,41.92533,-87.6658,41.92154,-87.653818,member
8B9539446B8BC714,classic_bike,2022-01-21 06:55:45,2022-01-21 07:00:27,Lincoln Ave & Belle Plaine Ave,TA1309000026,Lincoln Ave & Waveland Ave,13253,41.95600355078549,-87.68016144633293,41.948797,-87.675278,member
5B1EFE5274A7DA73,classic_bike,2022-01-22 22:30:57,2022-01-22 22:38:44,Honore St & Division St,TA1305000034,Western Ave & Walton St,KA1504000103,41.903119,-87.673935,41.89841768945,-87.6865960164,casual
EF316239DE7FFF5E,classic_bike,2022-01-18 20:03:16,2022-01-18 20:21:33,Halsted St & Roosevelt Rd,TA1305000017,Ashland Ave & Division St,13061,41.867324,-87.648625,41.90345,-87.667747,member
1C4AC63CCE4339B1,classic_bike,2022-01-13 17:11:46,2022-01-13 17:19:38,Larrabee St & Kingsbury St,TA1306000009,Clark St & Lake St,KA1503000012,41.897764,-87.642884,41.88602082773,-87.6308760584,casual
B6D8D7095473472C,classic_bike,2022-01-22 11:38:57,2022-01-22 11:45:47,Damen Ave & Charleston St,13288,Milwaukee Ave & Wabansia Ave,13243,41.920082,-87.677855,41.912616,-87.681391,member
E8453E4F61F2168B,classic_bike,2022-01-07 15:39:39,2022-01-07 15:45:38,Halsted St & Willow St,TA1307000166,Larrabee St & Division St,KA1504000079,41.913865,-87.648755,41.90348607004,-87.6433534936,member
79FBCE9AA6B4A316,classic_bike,2022-01-04 07:32:26,2022-01-04 07:36:01,Rush St & Cedar St,KA1504000133,Clark St & Chicago Ave,13303,41.90230870122,-87.627690528,41.89675,-87.63089,member
6E3B86672AAB893F,classic_bike,2022-01-11 09:32:11,2022-01-11 10:30:55,Clark St & Schreiber Ave,KA1504000156,Clark St & Schreiber Ave,KA1504000156,41.99925182186,-87.6713773393,41.99925182186,-87.6713773393,member
81A0EE5305A54C44,classic_bike,2022-01-27 17:02:23,2022-01-27 17:20:18,Ogden Ave & Chicago Ave,TA1305000020,Clark St & Chicago Ave,13303,41.896362458,-87.6540612729,41.89675,-87.63089,member
290C6AEFA68B08D6,electric_bike,2022-01-31 14:13:05,2022-01-31 14:27:00,Spaulding Ave & Armitage Ave,15650,Central Park Ave & Elbridge Ave,15644,41.917152524,-87.710322738,41.93533728263,-87.7168892935,member
BC96064B968722E2,classic_bike,2022-01-23 15:15:44,2022-01-23 15:21:12,Glenwood Ave & Touhy Ave,525,Glenwood Ave & Morse Ave,KA1504000175,42.012701,-87.666058,42.00797192287,-87.6655023944,member
E9D2F8B25F8460F8,electric_bike,2022-01-30 17:09:47,2022-01-30 17:14:38,Sheridan Rd & Irving Park Rd,13063,Sheridan Rd & Lawrence Ave,TA1309000041,41.95432266666667,-87.65447183333333,41.969517,-87.654691,member
9B8771E992E72946,classic_bike,2022-01-16 16:12:49,2022-01-16 16:16:29,Wabash Ave & Grand Ave,TA1307000117,State St & Randolph St,TA1305000029,41.891466,-87.626761,41.88462107257936,-87.62783423066139,member
1B3EC997432FE060,electric_bike,2022-01-31 17:08:17,2022-01-31 17:17:23,Winchester (Ravenswood) Ave & Balmoral Ave,KA1504000147,Broadway & Thorndale Ave,15575,41.97977531,-87.677483559,41.98974251144,-87.6601406209,member
341C2436A2937441,classic_bike,2022-01-13 08:14:00,2022-01-13 08:28:35,Sedgwick St & Schiller St,TA1307000143,Stockton Dr & Wrightwood Ave,13276,41.907626,-87.638566,41.93132,-87.638742,member
68EAB80BF3B20792,classic_bike,2022-01-17 12:34:47,2022-01-17 12:42:03,Clark St & Schreiber Ave,KA1504000156,Glenwood Ave & Morse Ave,KA1504000175,41.99925182186,-87.6713773393,42.00797192287,-87.6655023944,member
DD1DACE02C7E4E98,electric_bike,2022-01-17 08:42:43,2022-01-17 08:51:32,Franklin St & Jackson Blvd,TA1305000025,Franklin St & Chicago Ave,13017,41.87751566666667,-87.63519733333334,41.896746973093805,-87.63566762208939,member
9C7933BF244D36DC,classic_bike,2022-01-07 14:18:31,2022-01-07 14:20:20,Orleans St & Chestnut St (NEXT Apts),620,Franklin St & Chicago Ave,13017,41.898203,-87.637536,41.896746973093805,-87.63566762208939,casual
2D6286CAA3C1E2C7,classic_bike,2022-01-14 09:12:52,2022-01-14 09:18:46,Ellis Ave & 55th St,KA1504000076,Lake Park Ave & 56th St,TA1309000063,41.79430062054,-87.6014497734,41.793242,-87.587782,member
A69A4426736E0C55,electric_bike,2022-01-03 15:26:08,2022-01-03 15:27:04,LaSalle St & Jackson Blvd,TA1309000004,LaSalle St & Adams St,KA1503000034,41.877978,-87.63198,41.87934437346,-87.6319852213,member
C8B614E35854E629,classic_bike,2022-01-18 17:24:55,2022-01-18 17:30:19,Sheffield Ave & Fullerton Ave,TA1306000016,Southport Ave & Wrightwood Ave,TA1307000113,41.9256018819,-87.6537080423,41.928773,-87.663913,member
AFE2971130C8250F,classic_bike,2022-01-02 11:17:37,2022-01-02 11:29:44,Eckhart Park,13289,Milwaukee Ave & Wabansia Ave,13243,41.89637337,-87.66098386,41.912616,-87.681391,casual
24B76CB2C3B9EB6E,classic_bike,2022-01-24 08:38:22,2022-01-24 08:59:56,Wood St & Chicago Ave,637,Dearborn St & Adams St,TA1305000005,41.895634,-87.672069,41.8793563587,-87.6297910363,casual
09D80C2049410B3E,classic_bike,2022-01-18 07:33:04,2022-01-18 07:44:11,Canal St & Monroe St,13056,Columbus Dr & Randolph St,13263,41.88169,-87.63953,41.884728,-87.619521,member
15CAB591515A8C9D,classic_bike,2022-01-18 18:24:18,2022-01-18 18:31:44,Dorchester Ave & 49th St,KA1503000069,Woodlawn Ave & 55th St,TA1307000164,41.805772,-87.592464,41.795264,-87.596471,member
7DD70C4AA0F3EA7B,classic_bike,2022-01-14 05:47:07,2022-01-14 05:47:39,Lincoln Park Conservatory,LP-,Lincoln Park Conservatory,LP-,41.92393131136619,-87.63582453131676,41.92393131136619,-87.63582453131676,member
8803AE4743CC4CC8,electric_bike,2022-01-14 20:31:02,2022-01-14 20:34:28,Halsted St & Clybourn Ave,331,Bissell St & Armitage Ave,13059,41.909621358,-87.64812254899999,41.91801814237187,-87.65218198299408,member
823C892818DC8D2C,classic_bike,2022-01-12 12:51:39,2022-01-12 13:05:50,Federal St & Polk St,SL-008,Dearborn Pkwy & Delaware Pl,TA1307000128,41.87207763285,-87.6295437729,41.898969,-87.629912,casual
C09E06B5F5B3570B,electric_bike,2022-01-13 18:58:35,2022-01-13 19:08:32,2112 W Peterson Ave,KA1504000155,Clark St & Bryn Mawr Ave,KA1504000151,41.991175,-87.68363216666667,41.983593,-87.669154,member
DA96FF5AD130B24F,classic_bike,2022-01-30 18:45:14,2022-01-30 18:58:39,Clark St & Schreiber Ave,KA1504000156,Broadway & Thorndale Ave,15575,41.99925182186,-87.6713773393,41.98974251144,-87.6601406209,member
D8625A589DD02A83,electric_bike,2022-01-09 12:59:25,2022-01-09 13:04:51,Southport Ave & Belmont Ave,13229,Ashland Ave & Grace St,13319,41.93940633333333,-87.66385466666667,41.950687,-87.6687,member
9D4AAF43A011FC59,electric_bike,2022-01-18 08:03:16,2022-01-18 08:08:00,California Ave & Altgeld St,15646,Milwaukee Ave & Rockwell St,13242,41.9266475,-87.69766083333333,41.92019556200566,-87.69265919923781,casual
39DBC2B92A41D17B,classic_bike,2022-01-08 09:32:43,2022-01-08 09:37:18,Damen Ave & Sunnyside Ave,TA1309000012,Western Ave & Leland Ave,TA1307000140,41.96325,-87.679258,41.966399801840986,-87.68870428204536,casual
64C7F14707162C96,classic_bike,2022-01-07 18:28:37,2022-01-07 18:39:55,Milwaukee Ave & Grand Ave,13033,Wood St & Augusta Blvd,657,41.891578,-87.648384,41.899181,-87.6722,casual
FD35DB60613207FE,electric_bike,2022-01-10 11:22:43,2022-01-10 11:30:28,900 W Harrison St,13028,Sedgwick St & Huron St,TA1307000062,41.874779105,-87.649842381,41.894666,-87.638437,member
B794DC81E7BA64F8,classic_bike,2022-01-14 17:48:58,2022-01-14 18:00:31,State St & Randolph St,TA1305000029,Desplaines St & Jackson Blvd,15539,41.88462107257936,-87.62783423066139,41.87811890091227,-87.64394760131836,member
51C984045A85B122,classic_bike,2022-01-17 13:32:12,2022-01-17 13:46:16,Blue Island Ave & 18th St,13135,Morgan St & Pershing Rd,16933,41.857556,-87.661535,41.823613,-87.650931,member
17EB27B2DD81CB6C,classic_bike,2022-01-19 11:10:29,2022-01-19 11:12:39,Aberdeen St & Jackson Blvd,13157,Aberdeen St & Monroe St,13156,41.87772613,-87.65478743,41.880419,-87.655519,member
32EA4BACC3779292,classic_bike,2022-01-18 13:53:01,2022-01-18 13:57:22,Sheffield Ave & Wellington Ave,TA1307000052,Racine Ave & Belmont Ave,TA1308000019,41.9362534831413,-87.65266209840775,41.939743,-87.658865,member
B0F160012485900B,classic_bike,2022-01-10 07:28:27,2022-01-10 07:28:28,Financial Pl & Ida B Wells Dr,SL-010,Financial Pl & Ida B Wells Dr,SL-010,41.8750236280333,-87.6330940425396,41.8750236280333,-87.6330940425396,member
D283CB1259D59905,classic_bike,2022-01-12 18:40:54,2022-01-12 18:53:31,Clinton St & Lake St,13021,Clinton St & Lake St,13021,41.885637,-87.641823,41.885637,-87.641823,member
D10AF7011D9CE41B,classic_bike,2022-01-25 10:55:45,2022-01-25 11:06:01,Chicago Ave & Washington St,E002,Dodge Ave & Main St,E011,42.032562,-87.679101,42.03463185161588,-87.69918769598006,member
179795BA53910BCB,classic_bike,2022-01-20 17:03:14,2022-01-20 17:13:04,Paulina St & Howard St,515,Ridge Blvd & Howard St,514,42.019159,-87.673573,42.019276,-87.68452,member
38A42898ED51CB39,classic_bike,2022-01-12 23:17:24,2022-01-12 23:30:55,Clark St & Bryn Mawr Ave,KA1504000151,Glenwood Ave & Touhy Ave,525,41.983593,-87.669154,42.012701,-87.666058,casual
1428F379166163D8,classic_bike,2022-01-05 16:36:50,2022-01-05 16:41:25,Sedgwick St & Schiller St,TA1307000143,Wells St & Elm St,KA1504000135,41.907626,-87.638566,41.903222,-87.634324,casual
F3EA3A8BDEC779ED,classic_bike,2022-01-20 15:16:04,2022-01-20 15:20:44,Clinton St & Lake St,13021,Green St & Madison St,TA1307000120,41.885637,-87.641823,41.881892,-87.648789,casual
0EB3E43FA67EE5AB,electric_bike,2022-01-27 22:33:13,2022-01-27 22:38:35,Western Ave & 21st St,13091,Ogden Ave & Roosevelt Rd,KA1504000101,41.85403583333333,-87.68585483333334,41.86650148316,-87.68469707,casual
77C8C2822D121C4A,classic_bike,2022-01-26 12:23:27,2022-01-26 12:37:19,Wabash Ave & Wacker Pl,TA1307000131,Wells St & Polk St,SL-011,41.886875,-87.62603,41.872596,-87.633502,member
BC6D1B3815780455,classic_bike,2022-01-03 13:44:53,2022-01-03 13:51:15,State St & Harrison St,SL-007,Indiana Ave & Roosevelt Rd,SL-005,41.874053,-87.627716,41.867888,-87.623041,member
04A23CEE63BBB505,electric_bike,2022-01-03 15:57:35,2022-01-03 16:05:50,DuSable Lake Shore Dr & North Blvd,LF-005,State St & Pearson St,TA1307000061,41.9117565,-87.62676316666666,41.897448,-87.628722,casual
17611A954DB67B34,electric_bike,2022-01-27 08:29:01,2022-01-27 08:33:24,Wells St & Huron St,TA1306000012,Dearborn Pkwy & Delaware Pl,TA1307000128,41.894685984,-87.634269834,41.898969,-87.629912,member
C0DE5EC3CDF36BFD,electric_bike,2022-01-07 16:09:13,2022-01-07 16:16:28,Ogden Ave & Chicago Ave,TA1305000020,Clark St & Chicago Ave,13303,41.896320343,-87.654000759,41.89675,-87.63089,member
557EE3FFFCB580F7,classic_bike,2022-01-20 12:32:49,2022-01-20 12:54:32,Ellis Ave & 58th St,TA1309000011,South Shore Dr & 71st St,KA1503000002,41.788746,-87.601334,41.7664094567,-87.5656875719,member
3BACBCD4DC50F9FE,electric_bike,2022-01-06 12:22:13,2022-01-06 12:29:50,Halsted St & North Branch St,KA1504000117,Green St & Madison St,TA1307000120,41.899423122,-87.648477674,41.881892,-87.648789,member
01568F87F98F8A4A,electric_bike,2022-01-16 13:59:00,2022-01-16 14:17:50,State St & 54th St,646,Emerald Ave & 31st St,TA1309000055,41.796580166666665,-87.62588283333334,41.838198,-87.645143,casual
A4FA6AADC7079180,classic_bike,2022-01-17 20:31:39,2022-01-17 20:48:49,Franklin St & Illinois St,RN-,Clark St & Chicago Ave,13303,41.89102331025185,-87.63547986745834,41.89675,-87.63089,member
9096452DC9670B54,classic_bike,2022-01-14 21:40:42,2022-01-14 21:50:18,University Ave & 57th St,KA1503000071,Shore Dr & 55th St,TA1308000009,41.791478,-87.599861,41.795212,-87.580715,member
FE76D8C5A91C425A,electric_bike,2022-01-18 19:31:19,2022-01-18 19:54:39,Larrabee St & Oak St,KA1504000116,Ashland Ave & Grace St,13319,41.90025466666667,-87.64300033333333,41.950687,-87.6687,member
1B66EC28DD618680,electric_bike,2022-01-21 14:26:57,2022-01-21 14:32:17,Central Park Ave & Ohio St,369,,,41.89,-87.72,41.9,-87.71,member
AA5B010E21156B59,classic_bike,2022-01-18 14:56:25,2022-01-18 15:05:33,Wolcott Ave & Polk St,TA1309000064,Ada St & Washington Blvd,13353,41.871262,-87.673688,41.88283,-87.661206,casual
9712E3E11A14D2DD,electric_bike,2022-01-13 10:01:48,2022-01-13 10:11:52,Desplaines St & Jackson Blvd,15539,Clark St & Lake St,KA1503000012,41.87809033333333,-87.64419666666667,41.88602082773,-87.6308760584,member
C83EDC3F217196A1,classic_bike,2022-01-16 13:49:49,2022-01-16 13:58:22,Aberdeen St & Randolph St,18062,Damen Ave & Walnut (Lake) St,KA17018054,41.884114,-87.654264,41.885951,-87.677009,member
24059774E7504236,classic_bike,2022-01-25 22:44:25,2022-01-25 22:54:27,University Ave & 57th St,KA1503000071,Shore Dr & 55th St,TA1308000009,41.791478,-87.599861,41.795212,-87.580715,member
C8F93B4EB06930FD,electric_bike,2022-01-12 22:54:36,2022-01-12 22:58:04,Glenwood Ave & Morse Ave,KA1504000175,Greenview Ave & Jarvis Ave,520,42.007992864,-87.665484071,42.015962,-87.66857,member
7ADF9CC3F6A0EA51,electric_bike,2022-01-20 17:36:46,2022-01-20 17:40:38,Wells St & Huron St,TA1306000012,Dearborn Pkwy & Delaware Pl,TA1307000128,41.89480616666667,-87.6345505,41.898969,-87.629912,member
9946705113D42A72,electric_bike,2022-01-27 21:48:38,2022-01-27 21:55:44,Wilton Ave & Belmont Ave,TA1307000134,Hampden Ct & Diversey Ave,202480.0,41.940051,-87.65293033333333,41.93,-87.64,member
057A54426C43B920,classic_bike,2022-01-31 19:23:13,2022-01-31 19:28:11,Wood St & Milwaukee Ave,13221,Milwaukee Ave & Wabansia Ave,13243,41.907655,-87.672552,41.912616,-87.681391,member
0286691472796B18,classic_bike,2022-01-20 11:39:04,2022-01-20 11:51:36,Ashland Ave & Division St,13061,Ashland Ave & Division St,13061,41.90345,-87.667747,41.90345,-87.667747,member
A7AFBEDCB13563CB,classic_bike,2022-01-24 13:20:00,2022-01-24 13:34:18,Michigan Ave & Jackson Blvd,TA1309000002,Shedd Aquarium,15544,41.87785,-87.62408,41.86722595682,-87.6153553902,casual
1E8AEC8448139702,classic_bike,2022-01-13 11:33:59,2022-01-13 11:42:06,St. Clair St & Erie St,13016,Columbus Dr & Randolph St,13263,41.89434513742426,-87.62279838323593,41.884728,-87.619521,casual
A3DCFB423064F830,classic_bike,2022-01-02 16:05:40,2022-01-02 16:19:05,Halsted St & Clybourn Ave,331,Greenview Ave & Fullerton Ave,TA1307000001,41.909668,-87.648128,41.92533,-87.6658,casual
974FF6B488F304FB,classic_bike,2022-01-22 15:24:15,2022-01-22 15:32:08,Lincoln Park Conservatory,LP-,Sheffield Ave & Webster Ave,TA1309000033,41.92393131136619,-87.63582453131676,41.92154,-87.653818,member
BF1553B9E1793F3E,classic_bike,2022-01-10 11:28:10,2022-01-10 11:37:35,Ogden Ave & Race Ave,13194,Ashland Ave & Blackhawk St,13224,41.891795,-87.658751,41.907066,-87.667252,member
0862EC283C8B6191,classic_bike,2022-01-07 08:40:27,2022-01-07 08:47:46,Michigan Ave & 14th St,TA1307000124,Michigan Ave & Jackson Blvd,TA1309000002,41.864059,-87.623727,41.87785,-87.62408,casual
32F645A6598912A2,electric_bike,2022-01-01 16:12:46,2022-01-01 16:37:39,Wabash Ave & Grand Ave,TA1307000117,Racine Ave & 18th St,13164,41.8915895,-87.626751,41.858166,-87.656495,casual
FAB694C4714EDCBA,classic_bike,2022-01-02 15:25:29,2022-01-02 15:31:26,Cornell Ave & Hyde Park Blvd,KA1503000007,Lake Park Ave & 56th St,TA1309000063,41.802406,-87.586924,41.793242,-87.587782,member
5A3BED772BBC9164,classic_bike,2022-01-13 18:27:36,2022-01-13 18:32:30,Clark St & Randolph St,TA1305000030,Columbus Dr & Randolph St,13263,41.884576228,-87.63188991,41.884728,-87.619521,member
E9FA7CC1769BA789,electric_bike,2022-01-21 15:11:17,2022-01-21 15:18:55,Wells St & Concord Ln,TA1308000050,Clark St & Chicago Ave,13303,41.912077833333335,-87.63473916666666,41.89675,-87.63089,casual
F0784A58D225F2CE,classic_bike,2022-01-24 16:15:31,2022-01-24 16:21:30,University Ave & 57th St,KA1503000071,Lake Park Ave & 56th St,TA1309000063,41.791478,-87.599861,41.793242,-87.587782,member
655CA8B222CD3FCC,classic_bike,2022-01-24 18:42:08,2022-01-24 18:52:14,Wolcott Ave & Polk St,TA1309000064,Damen Ave & Cullerton St,13089,41.871262,-87.673688,41.854966518753926,-87.67569959163664,member
F4FA3AC16E0F1102,classic_bike,2022-01-01 21:25:52,2022-01-01 21:37:07,Indiana Ave & 31st St,TA1308000036,Rhodes Ave & 32nd St,13215,41.838842,-87.621857,41.836208,-87.613533,member
6B09CFFD4CFC9DD4,classic_bike,2022-01-22 11:33:53,2022-01-22 11:37:43,Franklin St & Illinois St,RN-,Franklin St & Chicago Ave,13017,41.89102331025185,-87.63547986745834,41.896746973093805,-87.63566762208939,member
C061D375881348A0,classic_bike,2022-01-08 10:45:45,2022-01-08 10:54:00,Indiana Ave & 31st St,TA1308000036,Wabash Ave & Cermak Rd,TA1305000001,41.838842,-87.621857,41.852619,-87.626488,casual
1627E29041E0A6B0,classic_bike,2022-01-30 16:28:49,2022-01-30 17:06:26,Shore Dr & 55th St,TA1308000009,Shore Dr & 55th St,TA1308000009,41.795212,-87.580715,41.795212,-87.580715,casual
2841F5DA20851942,classic_bike,2022-01-20 14:58:07,2022-01-20 15:07:41,DuSable Lake Shore Dr & North Blvd,LF-005,Streeter Dr & Grand Ave,13022,41.911722,-87.626804,41.892278,-87.612043,member
9A7CC85A0C99CD19,classic_bike,2022-01-31 19:59:02,2022-01-31 20:05:53,Clinton St & Roosevelt Rd,WL-008,Desplaines St & Jackson Blvd,15539,41.8671177825,-87.6410879593,41.87811890091227,-87.64394760131836,member
2CFCB64733053008,classic_bike,2022-01-13 17:20:21,2022-01-13 17:25:29,Wilton Ave & Diversey Pkwy,TA1306000014,Sheffield Ave & Webster Ave,TA1309000033,41.932418,-87.652705,41.92154,-87.653818,casual
256EC9FA05FA5121,classic_bike,2022-01-04 17:44:11,2022-01-04 18:18:30,Kimball Ave & Belmont Ave,KA150400009X,Racine Ave & Belmont Ave,TA1308000019,41.939398,-87.711561,41.939743,-87.658865,casual
DE7C3C016DE4946D,classic_bike,2022-01-28 17:08:52,2022-01-28 17:17:54,Wabash Ave & Grand Ave,TA1307000117,Clinton St & Lake St,13021,41.891466,-87.626761,41.885637,-87.641823,member
F5D1313AF7636AD2,classic_bike,2022-01-22 14:27:42,2022-01-22 14:35:53,Ashland Ave & Grand Ave,13434,Ada St & Washington Blvd,13353,41.891072,-87.666611,41.88283,-87.661206,member
EC4A15B9115A6ADB,classic_bike,2022-01-09 03:14:32,2022-01-09 03:26:36,Clark St & Wellington Ave,TA1307000136,Clark St & Montrose Ave,KA1503000022,41.9364968219,-87.6475386582,41.961588,-87.666036,casual
10DD9FADD7E85011,electric_bike,2022-01-19 20:39:01,2022-01-19 20:46:08,Rush St & Superior St,15530,Orleans St & Merchandise Mart Plaza,TA1305000022,41.896445,-87.6264465,41.888243,-87.63639,member
E5BC6FC889CDF08B,classic_bike,2022-01-25 14:15:36,2022-01-25 14:18:46,Halsted St & Willow St,TA1307000166,Bissell St & Armitage Ave,13059,41.913865,-87.648755,41.91801814237187,-87.65218198299408,member
15C176B55C2BC059,classic_bike,2022-01-19 21:00:40,2022-01-19 21:09:56,Clark St & Bryn Mawr Ave,KA1504000151,Clark St & Schreiber Ave,KA1504000156,41.983593,-87.669154,41.99925182186,-87.6713773393,member
26AD63946C6EAD61,classic_bike,2022-01-15 15:48:17,2022-01-15 16:02:02,Cityfront Plaza Dr & Pioneer Ct,13427,Streeter Dr & Grand Ave,13022,41.890573,-87.622072,41.892278,-87.612043,casual
6A12E224B0191112,classic_bike,2022-01-12 12:16:14,2022-01-12 12:22:51,Wabash Ave & Grand Ave,TA1307000117,Dearborn Pkwy & Delaware Pl,TA1307000128,41.891466,-87.626761,41.898969,-87.629912,member
8A01E95EC11B9AD3,classic_bike,2022-01-25 16:18:01,2022-01-25 16:25:08,St. Clair St & Erie St,13016,Clark St & Lake St,KA1503000012,41.89434513742426,-87.62279838323593,41.88602082773,-87.6308760584,member
FA281AC4F2F19356,electric_bike,2022-01-11 19:50:51,2022-01-11 19:57:11,Wells St & Concord Ln,TA1308000050,Clark St & Chicago Ave,13303,41.912015,-87.6347835,41.89675,-87.63089,member
4D539D892EAE3D16,classic_bike,2022-01-12 08:45:59,2022-01-12 08:57:06,Ashland Ave & Chicago Ave,13247,Ashland Ave & Lake St,13073,41.8959743225961,-87.66772538423538,41.88592,-87.66717,member
8BBF801F0575D1B6,electric_bike,2022-01-15 17:47:20,2022-01-15 17:54:27,Milwaukee Ave & Grand Ave,13033,Wood St & Augusta Blvd,657,41.891461372,-87.648242116,41.899181,-87.6722,casual
0A5CD4848EB8CFE8,electric_bike,2022-01-12 22:32:48,2022-01-12 22:41:56,Washtenaw Ave & Lawrence Ave,KA1504000080,Western Ave & Granville Ave,KA1504000129,41.9687465,-87.696182,41.99416136902,-87.689438282,member
86A91B1125D09119,classic_bike,2022-01-08 10:07:26,2022-01-08 10:29:19,Sedgwick St & North Ave,TA1307000038,Sheridan Rd & Irving Park Rd,13063,41.911386,-87.638677,41.954245,-87.654406,casual
59858FDF43859ACA,classic_bike,2022-01-30 09:02:32,2022-01-30 09:07:35,Green St & Randolph St,13053,Aberdeen St & Monroe St,13156,41.88318130597391,-87.64872461557388,41.880419,-87.655519,member
2D09C1E6709666BC,electric_bike,2022-01-31 16:07:06,2022-01-31 16:11:55,Ellis Ave & 53rd St,KA1503000052,Kimbark Ave & 53rd St,TA1309000037,41.799429297,-87.600948095,41.799568,-87.594747,member
627F3B90CE53AA91,classic_bike,2022-01-19 07:31:17,2022-01-19 07:33:33,Rush St & Cedar St,KA1504000133,Dearborn Pkwy & Delaware Pl,TA1307000128,41.90230870122,-87.627690528,41.898969,-87.629912,member
9F9CE496AC1A6C9B,electric_bike,2022-01-08 10:16:51,2022-01-08 10:31:15,Field Blvd & South Water St,15534,Calumet Ave & 21st St,15546,41.88563666666667,-87.61728316666667,41.85418424947,-87.6191537415,casual
5BACCE903E03B884,classic_bike,2022-01-31 11:00:03,2022-01-31 11:02:23,Blue Island Ave & 18th St,13135,Racine Ave & 18th St,13164,41.857556,-87.661535,41.858166,-87.656495,member
96A3249B8885B5FF,classic_bike,2022-01-06 14:36:21,2022-01-06 14:43:48,LaSalle St & Jackson Blvd,TA1309000004,Indiana Ave & Roosevelt Rd,SL-005,41.878166,-87.631929,41.867888,-87.623041,member
3D619A3F3FE61772,electric_bike,2022-01-03 09:56:59,2022-01-03 10:05:09,Ashland Ave & Grand Ave,13434,Green St & Madison St,TA1307000120,41.89110016666667,-87.66667533333333,41.881892,-87.648789,member
57794A83E983A452,classic_bike,2022-01-26 14:53:36,2022-01-26 15:05:13,Theater on the Lake,TA1308000001,Racine Ave & Fullerton Ave,TA1306000026,41.926277,-87.630834,41.92556258,-87.65840426,member
028D7DA0B03EB9C6,electric_bike,2022-01-22 14:32:35,2022-01-22 15:06:50,S Wentworth Ave & W 111th St,20128,S Wentworth Ave & W 111th St,20128,41.69,-87.63,41.69,-87.63,casual
EED9A7E1815417E7,electric_bike,2022-01-17 18:04:01,2022-01-17 18:10:03,State St & Chicago Ave,21544,State St & Randolph St,TA1305000029,41.896743,-87.62868966666667,41.88462107257936,-87.62783423066139,member
F5E6D97D85BE8039,classic_bike,2022-01-31 12:07:45,2022-01-31 12:12:48,Michigan Ave & Jackson Blvd,TA1309000002,Indiana Ave & Roosevelt Rd,SL-005,41.87785,-87.62408,41.867888,-87.623041,member
5DF3F462A0DF1431,electric_bike,2022-01-22 01:03:45,2022-01-22 01:07:57,Franklin St & Illinois St,RN-,Clinton St & Lake St,13021,41.891051,-87.635492,41.885637,-87.641823,member
3E7FC52552A3342D,classic_bike,2022-01-09 06:20:55,2022-01-09 06:29:34,Calumet Ave & 35th St,13345,Rhodes Ave & 32nd St,13215,41.831379,-87.618034,41.836208,-87.613533,member
9953D1A7E04B523A,classic_bike,2022-01-18 20:37:14,2022-01-18 20:45:49,Michigan Ave & Jackson Blvd,TA1309000002,Columbus Dr & Randolph St,13263,41.87785,-87.62408,41.884728,-87.619521,member
FF0769D37B5F2484,electric_bike,2022-01-28 16:33:07,2022-01-28 16:46:15,Larrabee St & North Ave,TA1306000008,Orleans St & Merchandise Mart Plaza,TA1305000022,41.910213113,-87.643490434,41.888243,-87.63639,member
698417AA3E012FE6,electric_bike,2022-01-18 17:49:02,2022-01-18 18:03:54,State St & Van Buren St,TA1305000035,Blue Island Ave & 18th St,13135,41.877083166666665,-87.62786166666666,41.857556,-87.661535,member
6412A77D7708865D,electric_bike,2022-01-25 08:24:27,2022-01-25 08:34:01,Indiana Ave & Roosevelt Rd,SL-005,Clark St & Ida B Wells Dr,TA1305000009,41.86784166666666,-87.623,41.8759326655,-87.6305845355,member
21B35DADAA9D2389,electric_bike,2022-01-12 13:26:19,2022-01-12 13:30:30,Halsted St & North Branch St,KA1504000117,Sedgwick St & Huron St,TA1307000062,41.89929433333333,-87.6484845,41.894666,-87.638437,member
4801142FE6EE3832,classic_bike,2022-01-18 16:04:10,2022-01-18 16:29:37,Campbell Ave & North Ave,13257,Leavitt St & Armitage Ave,TA1309000029,41.910535,-87.689556,41.917805,-87.682437,member
87DB56DCED3809DE,classic_bike,2022-01-03 16:18:32,2022-01-03 16:23:14,Greenview Ave & Fullerton Ave,TA1307000001,Racine Ave & Fullerton Ave,TA1306000026,41.92533,-87.6658,41.92556258,-87.65840426,member
3D9308AD5BC04C8D,classic_bike,2022-01-31 00:48:35,2022-01-31 01:02:04,Broadway & Thorndale Ave,15575,Clark St & Schreiber Ave,KA1504000156,41.98974251144,-87.6601406209,41.99925182186,-87.6713773393,member
1C7D768F5C21A9A8,classic_bike,2022-01-06 06:57:51,2022-01-06 07:01:42,State St & Randolph St,TA1305000029,Cityfront Plaza Dr & Pioneer Ct,13427,41.88462107257936,-87.62783423066139,41.890573,-87.622072,member
345A8216F3BA2035,classic_bike,2022-01-04 14:30:50,2022-01-04 14:37:41,LaSalle St & Jackson Blvd,TA1309000004,Orleans St & Merchandise Mart Plaza,TA1305000022,41.878166,-87.631929,41.888243,-87.63639,member
9420FEBD0B89E069,classic_bike,2022-01-22 15:23:45,2022-01-22 15:27:39,Wells St & Huron St,TA1306000012,Wells St & Elm St,KA1504000135,41.894722,-87.634362,41.903222,-87.634324,member
1FB39D72FECB8795,classic_bike,2022-01-26 23:38:51,2022-01-26 23:46:35,Ellis Ave & 58th St,TA1309000011,Lake Park Ave & 56th St,TA1309000063,41.788746,-87.601334,41.793242,-87.587782,member
910DF054E66C4AF6,classic_bike,2022-01-11 19:26:42,2022-01-11 19:29:09,Sheridan Rd & Lawrence Ave,TA1309000041,Clarendon Ave & Leland Ave,TA1307000119,41.969517,-87.654691,41.967968,-87.650001,member
565EEF32A9B65000,electric_bike,2022-01-11 21:51:25,2022-01-11 21:55:27,,,Ashland Ave & Grace St,13319,41.95,-87.65,41.950687,-87.6687,member
28824E3CA94BB2EC,classic_bike,2022-01-18 18:57:54,2022-01-18 19:13:28,Wells St & Concord Ln,TA1308000050,Sheffield Ave & Wellington Ave,TA1307000052,41.912133,-87.634656,41.9362534831413,-87.65266209840775,member
94F0A9834FF56A61,classic_bike,2022-01-20 06:17:18,2022-01-20 06:21:38,Sedgwick St & North Ave,TA1307000038,Clark St & Armitage Ave,13146,41.911386,-87.638677,41.918306,-87.636282,member
7117CF2AEFF29287,classic_bike,2022-01-19 16:39:30,2022-01-19 16:46:41,LaSalle St & Jackson Blvd,TA1309000004,Desplaines St & Jackson Blvd,15539,41.878166,-87.631929,41.87811890091227,-87.64394760131836,member
EB24F96773D1DB75,classic_bike,2022-01-19 17:01:35,2022-01-19 17:07:01,Leavitt St & Division St,658,Ashland Ave & Division St,13061,41.902997,-87.683825,41.90345,-87.667747,casual
671684765F2916E4,classic_bike,2022-01-20 14:32:22,2022-01-20 14:54:37,Indiana Ave & Roosevelt Rd,SL-005,Indiana Ave & Roosevelt Rd,SL-005,41.867888,-87.623041,41.867888,-87.623041,member
AF369B570EACFC3B,classic_bike,2022-01-14 08:56:33,2022-01-14 09:11:15,Michigan Ave & Washington St,13001,Ada St & Washington Blvd,13353,41.8839840647265,-87.6246839761734,41.88283,-87.661206,member
896972C90811C54B,classic_bike,2022-01-15 16:33:16,2022-01-15 16:49:14,Damen Ave & Charleston St,13288,Lincoln Ave & Belle Plaine Ave,TA1309000026,41.920082,-87.677855,41.95600355078549,-87.68016144633293,casual
0AA241497B970400,classic_bike,2022-01-12 14:09:13,2022-01-12 14:10:53,LaSalle St & Jackson Blvd,TA1309000004,Clark St & Ida B Wells Dr,TA1305000009,41.878166,-87.631929,41.8759326655,-87.6305845355,member
ABF69320BE3057AE,electric_bike,2022-01-10 18:14:32,2022-01-10 18:20:09,Larrabee St & Kingsbury St,TA1306000009,Desplaines St & Kinzie St,TA1306000003,41.89754816666667,-87.64319933333333,41.888716036,-87.6444478533,member
1EBF95B25BB5091A,classic_bike,2022-01-17 10:53:26,2022-01-17 11:05:48,Racine Ave & 15th St,13304,Clinton St & Jackson Blvd,638,41.861267,-87.656625,41.87831661183069,-87.64098107814789,member
5B906EE80AEA0D87,classic_bike,2022-01-27 17:29:22,2022-01-27 17:35:39,Sheffield Ave & Waveland Ave,TA1307000126,Ashland Ave & Grace St,13319,41.949399,-87.654529,41.950687,-87.6687,member
706CFE7AC6E3599F,classic_bike,2022-01-19 17:27:33,2022-01-19 17:36:02,Halsted St & 18th St,13099,Blue Island Ave & 18th St,13135,41.85750568031716,-87.64599144458771,41.857556,-87.661535,member
2D26D8A51105E4E4,electric_bike,2022-01-11 21:45:49,2022-01-11 21:50:59,Halsted St & Clybourn Ave,331,Sedgwick St & North Ave,TA1307000038,41.909513833333335,-87.64813,41.911386,-87.638677,casual
339CEE3F8BABFEA8,classic_bike,2022-01-04 12:24:05,2022-01-04 13:08:57,Ashland Ave & Grace St,13319,Ashland Ave & Grace St,13319,41.950687,-87.6687,41.950687,-87.6687,member
2789A8865AF8B5C5,classic_bike,2022-01-16 20:31:51,2022-01-16 20:37:17,Damen Ave & Leland Ave,TA1307000158,Paulina St & Montrose Ave,TA1309000021,41.967094,-87.679028,41.961507,-87.671387,member
A468B05CD592BA68,classic_bike,2022-01-02 13:11:24,2022-01-02 13:24:14,Wabash Ave & Wacker Pl,TA1307000131,State St & Van Buren St,TA1305000035,41.886875,-87.62603,41.877181,-87.627844,casual
08A73F9F6FFFC773,electric_bike,2022-01-21 20:29:34,2022-01-21 20:32:46,Wells St & Huron St,TA1306000012,Wells St & Elm St,KA1504000135,41.89472783333333,-87.63441616666667,41.903222,-87.634324,member
3C9269758EC9464D,electric_bike,2022-01-12 17:12:56,2022-01-12 17:27:53,Franklin St & Jackson Blvd,TA1305000025,Ashland Ave & Division St,13061,41.878107786,-87.635038733,41.90345,-87.667747,member
2E79418CB79585C7,classic_bike,2022-01-04 17:47:48,2022-01-04 18:06:21,Calumet Ave & 33rd St,13217,Emerald Ave & 31st St,TA1309000055,41.8349,-87.61793,41.838198,-87.645143,casual
1C2362DAD4090D8A,electric_bike,2022-01-03 00:12:42,2022-01-03 00:17:50,Indiana Ave & 31st St,TA1308000036,Indiana Ave & 40th St,13083,41.838817477,-87.621834636,41.82168,-87.6216,casual
BF7B4EFEECC6E672,classic_bike,2022-01-25 13:14:15,2022-01-25 13:37:19,Ashland Ave & Grace St,13319,Ashland Ave & Grace St,13319,41.950687,-87.6687,41.950687,-87.6687,member
677E6033DD34B958,classic_bike,2022-01-16 16:35:37,2022-01-16 16:45:56,Sheridan Rd & Buena Ave,TA1309000027,Racine Ave & Belmont Ave,TA1308000019,41.958494,-87.654966,41.939743,-87.658865,member
1C8DDF5A64A632DC,electric_bike,2022-01-29 15:37:29,2022-01-29 15:51:03,Wood St & Hubbard St,13432,Blue Island Ave & 18th St,13135,41.889784098,-87.67158103,41.857556,-87.661535,casual
94EF6639804B361C,classic_bike,2022-01-01 21:23:49,2022-01-01 22:15:23,Western Ave & 21st St,13091,Western Ave & 21st St,13091,41.854109,-87.685838,41.854109,-87.685838,casual
914D93599715FB77,classic_bike,2022-01-21 17:00:11,2022-01-21 17:05:48,Clinton St & Jackson Blvd,638,Aberdeen St & Monroe St,13156,41.87831661183069,-87.64098107814789,41.880419,-87.655519,member
1EFB6377FE801DEF,classic_bike,2022-01-29 06:29:53,2022-01-29 06:32:32,Glenwood Ave & Touhy Ave,525,Greenview Ave & Jarvis Ave,520,42.012701,-87.666058,42.015962,-87.66857,member
1384D54083418B1E,classic_bike,2022-01-06 21:59:08,2022-01-06 22:07:35,Racine Ave & 13th St,13165,Blue Island Ave & 18th St,13135,41.865054,-87.656959,41.857556,-87.661535,casual
E0EF1AF6CE2C3D1E,electric_bike,2022-01-12 17:58:04,2022-01-12 18:17:09,Racine Ave & Washington Blvd,654,Sheffield Ave & Wrightwood Ave,TA1309000023,41.883093333333335,-87.657034,41.928712,-87.653833,member
5ADE68975368B141,classic_bike,2022-01-18 08:49:40,2022-01-18 08:55:14,Lake Park Ave & 56th St,TA1309000063,Kimbark Ave & 53rd St,TA1309000037,41.793242,-87.587782,41.799568,-87.594747,member
EFBFBDB04E145E53,classic_bike,2022-01-18 18:50:14,2022-01-18 18:52:48,Paulina St & 18th St,TA1307000159,Blue Island Ave & 18th St,13135,41.857901,-87.668745,41.857556,-87.661535,member
AFB9D08B354E0E69,electric_bike,2022-01-13 22:50:40,2022-01-13 23:05:10,Spaulding Ave & Armitage Ave,15650,Western Ave & Fillmore St,644,41.9170905,-87.71021516666667,41.868563,-87.686234,member
3D24CED3876F4115,classic_bike,2022-01-27 05:49:50,2022-01-27 05:53:13,Lake Park Ave & 56th St,TA1309000063,Lake Park Ave & 56th St,TA1309000063,41.793242,-87.587782,41.793242,-87.587782,casual
59B82577839342CD,classic_bike,2022-01-20 11:41:15,2022-01-20 11:45:45,Ashland Ave & Grand Ave,13434,Ada St & Washington Blvd,13353,41.891072,-87.666611,41.88283,-87.661206,member
2B0AAF2D696806FF,classic_bike,2022-01-01 11:42:03,2022-01-01 11:52:47,Ashland Ave & Grand Ave,13434,Ashland Ave & Blackhawk St,13224,41.891072,-87.666611,41.907066,-87.667252,member
20DADA739F06C869,classic_bike,2022-01-16 09:55:50,2022-01-16 10:04:26,Wolcott Ave & Polk St,TA1309000064,Ada St & Washington Blvd,13353,41.871262,-87.673688,41.88283,-87.661206,casual
053D19D7948BC10E,classic_bike,2022-01-21 13:36:10,2022-01-21 13:45:46,Eckhart Park,13289,Western Ave & Walton St,KA1504000103,41.89637337,-87.66098386,41.89841768945,-87.6865960164,member
99AF2541A91F804E,electric_bike,2022-01-09 15:23:46,2022-01-09 15:26:46,Wabash Ave & Grand Ave,TA1307000117,Fairbanks St & Superior St,18003,41.89133811,-87.626589537,41.895748,-87.620104,member
CA4D2E6EFB4C4EB5,classic_bike,2022-01-18 15:09:56,2022-01-18 15:26:53,Western Ave & 24th St,TA1309000003,Blue Island Ave & 18th St,13135,41.84847,-87.685109,41.857556,-87.661535,member
305237168F4892DA,classic_bike,2022-01-04 07:58:37,2022-01-04 08:04:00,Franklin St & Jackson Blvd,TA1305000025,Clark St & Lake St,KA1503000012,41.8777079559,-87.6353211408,41.88602082773,-87.6308760584,member
D37FF2290AB69148,classic_bike,2022-01-01 00:28:29,2022-01-01 00:42:13,Stony Island Ave & 67th St,KA1503000023,Perry Ave & 69th St,KA1503000047,41.77345849948,-87.5853397391,41.76929308995,-87.6281959291,casual
70C9DB9410449EBB,classic_bike,2022-01-11 12:05:22,2022-01-11 12:26:02,Racine Ave & 18th St,13164,Morgan St & Pershing Rd,16933,41.858166,-87.656495,41.823613,-87.650931,member
513AFC77F430DA72,classic_bike,2022-01-14 15:07:49,2022-01-14 15:25:53,Clinton St & Lake St,13021,Damen Ave & Cortland St,13133,41.885637,-87.641823,41.915983,-87.677335,member
EF11CBE37379031E,electric_bike,2022-01-31 17:30:43,2022-01-31 17:39:28,Broadway & Granville Ave,15571,Glenwood Ave & Morse Ave,KA1504000175,41.994586587,-87.660350919,42.00797192287,-87.6655023944,member
0B12F04B9CA9E674,classic_bike,2022-01-25 14:08:23,2022-01-25 14:14:15,Clark St & Bryn Mawr Ave,KA1504000151,Clark St & Winnemac Ave,TA1309000035,41.983593,-87.669154,41.97334764047304,-87.6678554713726,member
F0F19019457AAE0B,classic_bike,2022-01-24 12:44:33,2022-01-24 12:53:13,Clinton St & Roosevelt Rd,WL-008,May St & Taylor St,13160,41.8671177825,-87.6410879593,41.8694821,-87.6554864,member
D505B58A0A624955,classic_bike,2022-01-13 09:23:13,2022-01-13 09:39:58,Maplewood Ave & Peterson Ave,KA1504000130,Rockwell St & Eastwood Ave,KA1504000093,41.99023602867,-87.6933696402,41.96590013976,-87.6936384935,member
9565F258C31249E5,classic_bike,2022-01-09 02:52:40,2022-01-09 03:08:38,Damen Ave & Leland Ave,TA1307000158,Southport Ave & Roscoe St,13071,41.967094,-87.679028,41.943739,-87.66402,member
C8978F605EE892C0,classic_bike,2022-01-11 15:24:20,2022-01-11 15:27:56,Wabash Ave & Grand Ave,TA1307000117,St. Clair St & Erie St,13016,41.891466,-87.626761,41.89434513742426,-87.62279838323593,member
3133C5050EFDB3C3,classic_bike,2022-01-21 07:06:38,2022-01-21 07:17:32,Wells St & Concord Ln,TA1308000050,Wilton Ave & Diversey Pkwy,TA1306000014,41.912133,-87.634656,41.932418,-87.652705,member
A8ED89A7654A6591,classic_bike,2022-01-31 14:51:01,2022-01-31 14:51:38,Lake Park Ave & 56th St,TA1309000063,Lake Park Ave & 56th St,TA1309000063,41.793242,-87.587782,41.793242,-87.587782,member
04DC55E5B4EEFDC0,electric_bike,2022-01-12 16:01:17,2022-01-12 16:04:47,Lincoln Ave & Belle Plaine Ave,TA1309000026,Wolcott (Ravenswood) Ave & Montrose Ave,TA1307000144,41.95605433333333,-87.68028933333333,41.961406,-87.676169,member
2ED1F3B4510BB456,electric_bike,2022-01-19 03:18:25,2022-01-19 03:29:24,Clark St & Drummond Pl,TA1307000142,Clark St & Chicago Ave,13303,41.931214,-87.64428033333333,41.89675,-87.63089,casual
2667E850CD26B1E7,electric_bike,2022-01-08 22:44:48,2022-01-08 23:05:21,Ashland Ave & Division St,13061,Central Park Ave & Elbridge Ave,15644,41.9033265,-87.6678085,41.93533728263,-87.7168892935,casual
86AADE8AF6B8A18B,electric_bike,2022-01-09 16:45:29,2022-01-09 16:55:20,Eckhart Park,13289,Franklin St & Chicago Ave,13017,41.89638333333333,-87.66101866666666,41.896746973093805,-87.63566762208939,casual
18D2858A8D8F1FC4,electric_bike,2022-01-13 11:41:34,2022-01-13 11:51:34,Eckhart Park,13289,Clark St & Lake St,KA1503000012,41.8963745,-87.66107833333334,41.88602082773,-87.6308760584,casual
944870BB5E01E244,electric_bike,2022-01-21 13:23:13,2022-01-21 13:33:42,Emerald Ave & 31st St,TA1309000055,Calumet Ave & 21st St,15546,41.838255833333335,-87.64513583333333,41.85418424947,-87.6191537415,member
56BD3BB71727FEF2,classic_bike,2022-01-13 14:59:08,2022-01-13 15:02:57,Shore Dr & 55th St,TA1308000009,Lake Park Ave & 56th St,TA1309000063,41.795212,-87.580715,41.793242,-87.587782,member
240551343C458D08,classic_bike,2022-01-02 14:25:56,2022-01-02 15:15:46,Shore Dr & 55th St,TA1308000009,Shore Dr & 55th St,TA1308000009,41.795212,-87.580715,41.795212,-87.580715,member
E65FE8D6EF398BAF,electric_bike,2022-01-31 14:05:57,2022-01-31 14:14:49,Halsted St & North Branch St,KA1504000117,Peoria St & Jackson Blvd,13158,41.899358034,-87.648486376,41.8776415962753,-87.64961779117584,member
70D9DD454845E7A1,classic_bike,2022-01-11 12:16:06,2022-01-11 12:30:21,LaSalle St & Jackson Blvd,TA1309000004,Wells St & Huron St,TA1306000012,41.878166,-87.631929,41.894722,-87.634362,member
164980A878DAD7D1,classic_bike,2022-01-12 16:11:05,2022-01-12 16:15:40,Wabash Ave & Grand Ave,TA1307000117,Clark St & Chicago Ave,13303,41.891466,-87.626761,41.89675,-87.63089,member
76236AF330B6BE12,electric_bike,2022-01-16 17:43:23,2022-01-16 18:03:05,Ashland Ave & Grace St,13319,Ashland Ave & Grace St,13319,41.95070883333333,-87.66872566666666,41.950687,-87.6687,member
587AF0CB5798643C,classic_bike,2022-01-17 11:38:27,2022-01-17 11:52:56,Southport Ave & Waveland Ave,13235,Clark St & Drummond Pl,TA1307000142,41.94815,-87.66394,41.931248,-87.644336,member
14503AED2DD01B87,classic_bike,2022-01-20 06:22:40,2022-01-20 06:26:00,Michigan Ave & Washington St,13001,Michigan Ave & Ida B Wells Dr,TA1305000010,41.8839840647265,-87.6246839761734,41.876243,-87.624426,member
760CC9D7CB84190B,classic_bike,2022-01-26 18:12:08,2022-01-26 18:15:42,Dearborn St & Erie St,13045,Sedgwick St & Huron St,TA1307000062,41.893992,-87.629318,41.894666,-87.638437,member
B2922A35C50C40AE,electric_bike,2022-01-30 13:57:01,2022-01-30 14:08:34,Clark St & North Ave,13128,Milwaukee Ave & Wabansia Ave,13243,41.911928333333336,-87.632022,41.912616,-87.681391,member
154222B86A338ABD,electric_bike,2022-01-17 07:34:41,2022-01-17 08:00:08,Racine Ave & 15th St,13304,Clinton St & Washington Blvd,WL-012,41.861251333333335,-87.65650016666666,41.88338,-87.64117,member
8636E7ECF17C8992,electric_bike,2022-01-07 17:03:16,2022-01-07 17:07:12,LaSalle St & Washington St,13006,Michigan Ave & Washington St,13001,41.882788833333336,-87.6324335,41.8839840647265,-87.6246839761734,member
A184D11FDF48937A,classic_bike,2022-01-12 16:39:28,2022-01-12 16:53:00,Glenwood Ave & Touhy Ave,525,Clark St & Bryn Mawr Ave,KA1504000151,42.012701,-87.666058,41.983593,-87.669154,casual
7FDBEE28EA25CB26,electric_bike,2022-01-20 18:35:59,2022-01-20 18:39:39,Milwaukee Ave & Rockwell St,13242,Western Ave & Winnebago Ave,13068,41.920266,-87.69267566666667,41.91552,-87.687022,member
9471ED3E79CEB8DB,classic_bike,2022-01-16 14:50:56,2022-01-16 15:00:50,Clark St & Wellington Ave,TA1307000136,Southport Ave & Roscoe St,13071,41.9364968219,-87.6475386582,41.943739,-87.66402,member
F5946163B8A403BE,classic_bike,2022-01-14 09:55:20,2022-01-14 09:59:43,Halsted St & Roscoe St,TA1309000025,Broadway & Sheridan Rd,13323,41.94367,-87.64895,41.952833,-87.649993,member
D60D2DA68F5125E1,classic_bike,2022-01-01 20:12:50,2022-01-01 20:25:59,Wood St & Milwaukee Ave,13221,Milwaukee Ave & Rockwell St,13242,41.907655,-87.672552,41.92019556200566,-87.69265919923781,member
17E7B4B636B05DE2,classic_bike,2022-01-19 21:07:30,2022-01-19 21:16:47,Halsted St & Clybourn Ave,331,Franklin St & Chicago Ave,13017,41.909668,-87.648128,41.896746973093805,-87.63566762208939,casual
06FC7D6C7F0CFFC0,classic_bike,2022-01-17 08:45:31,2022-01-17 08:59:59,Wells St & Concord Ln,TA1308000050,Clark St & Lake St,KA1503000012,41.912133,-87.634656,41.88602082773,-87.6308760584,member
B0F5907DC97CA7BF,classic_bike,2022-01-28 18:39:55,2022-01-28 18:49:19,Shore Dr & 55th St,TA1308000009,Shore Dr & 55th St,TA1308000009,41.795212,-87.580715,41.795212,-87.580715,member
2ACDF81B8D7FE948,classic_bike,2022-01-16 16:37:53,2022-01-16 17:01:53,Wells St & Huron St,TA1306000012,Southport Ave & Roscoe St,13071,41.894722,-87.634362,41.943739,-87.66402,casual
EF886DFDA92BE029,classic_bike,2022-01-10 08:05:45,2022-01-10 08:10:19,Ogden Ave & Race Ave,13194,Carpenter St & Huron St,13196,41.891795,-87.658751,41.894556,-87.653449,casual
92C53CCAB35EB482,docked_bike,2022-01-27 15:07:06,2022-01-27 15:13:06,Clark St & Randolph St,TA1305000030,Columbus Dr & Randolph St,13263,41.884576,-87.63189,41.884728,-87.619521,casual
54DC9CCF4AB58C02,electric_bike,2022-01-13 16:46:56,2022-01-13 16:51:58,Franklin St & Jackson Blvd,TA1305000025,Clinton St & Lake St,13021,41.877628326,-87.63508594,41.885637,-87.641823,member
8DAC771AE9B73497,classic_bike,2022-01-30 15:43:02,2022-01-30 15:44:45,Wood St & 35th St,KA1503000066,Wood St & 35th St,KA1503000066,41.83010465416,-87.6702983089,41.83010465416,-87.6702983089,member
F7D33E918C3B3CC8,electric_bike,2022-01-24 17:35:18,2022-01-24 17:45:34,State St & Randolph St,TA1305000029,Wells St & Polk St,SL-011,41.88455983333333,-87.62802333333333,41.872596,-87.633502,member
67988288E4DD409C,classic_bike,2022-01-15 16:49:45,2022-01-15 17:04:32,State St & Harrison St,SL-007,Michigan Ave & 14th St,TA1307000124,41.874053,-87.627716,41.864059,-87.623727,casual
A7BB855515DA42AF,electric_bike,2022-01-20 08:12:59,2022-01-20 08:24:05,Canal St & Monroe St,13056,Franklin St & Chicago Ave,13017,41.88198383333334,-87.639587,41.896746973093805,-87.63566762208939,member
7197F24A7E0E13E5,electric_bike,2022-01-27 19:31:18,2022-01-27 19:36:36,St. Clair St & Erie St,13016,Dearborn Pkwy & Delaware Pl,TA1307000128,41.89455483333333,-87.62285116666666,41.898969,-87.629912,member
ABD03CA4BD7F0565,classic_bike,2022-01-06 17:55:28,2022-01-06 17:59:39,Sheridan Rd & Montrose Ave,TA1307000107,Sheridan Rd & Lawrence Ave,TA1309000041,41.96167,-87.65464,41.969517,-87.654691,member
DFD17D2A542CB28B,classic_bike,2022-01-19 17:17:32,2022-01-19 17:23:35,Clinton St & Jackson Blvd,638,Aberdeen St & Monroe St,13156,41.87831661183069,-87.64098107814789,41.880419,-87.655519,member
34B6D58C8056CA4A,classic_bike,2022-01-15 15:44:30,2022-01-15 15:53:56,Western Ave & Walton St,KA1504000103,Ashland Ave & Division St,13061,41.89841768945,-87.6865960164,41.90345,-87.667747,member
A45F5326BBB0AD95,classic_bike,2022-01-26 11:55:58,2022-01-26 12:03:13,Wood St & Taylor St (Temp),13285,Western Ave & Fillmore St,644,41.869265218438194,-87.67373085021973,41.868563,-87.686234,member
F849EC7F2A272C0C,classic_bike,2022-01-04 14:10:22,2022-01-04 14:26:56,Lake Park Ave & 47th St,TA1308000035,Shore Dr & 55th St,TA1308000009,41.809443,-87.591875,41.795212,-87.580715,member
C81A2E10E69C1ADD,electric_bike,2022-01-04 16:33:22,2022-01-04 16:38:58,Franklin St & Monroe St,TA1309000007,Clinton St & Lake St,13021,41.879185,-87.63561866666667,41.885637,-87.641823,member
8B45897FC43D41C2,classic_bike,2022-01-05 18:50:52,2022-01-05 18:53:27,Michigan Ave & Madison St,13036,State St & Randolph St,TA1305000029,41.882134,-87.625125,41.88462107257936,-87.62783423066139,member
3436522DA176FA94,electric_bike,2022-01-20 14:45:15,2022-01-20 14:47:54,Southport Ave & Waveland Ave,13235,Ashland Ave & Grace St,13319,41.948019505,-87.664227605,41.950687,-87.6687,member
BDD5E846A4B48475,electric_bike,2022-01-19 14:24:35,2022-01-19 14:42:39,Orleans St & Hubbard St,636,State St & Randolph St,TA1305000029,41.889514,-87.636745,41.88462107257936,-87.62783423066139,member
BA25695D428B5D2F,classic_bike,2022-01-25 18:54:27,2022-01-25 19:02:02,Ashland Ave & Division St,13061,Wood St & Augusta Blvd,657,41.90345,-87.667747,41.899181,-87.6722,member
F85EFC7FC8CB821F,classic_bike,2022-01-21 09:44:01,2022-01-21 09:53:26,Damen Ave & Charleston St,13288,Sheffield Ave & Webster Ave,TA1309000033,41.920082,-87.677855,41.92154,-87.653818,casual
